FID,amenity,name,latitude,longitude
0,restaurant,Kamakura Japanese Restaurant,14.5532999,120.9950027
1,restaurant,Max's,14.5326996,120.9940033
2,restaurant,Shakey's,14.5230999,121.0009995
3,restaurant,Conrad's Cafe and Grill,14.5264997,121.0000000
4,restaurant,Chowking,14.5310001,120.9940033
5,restaurant,Baracuda Cocktails and Seafood,12.9258003,123.5749969
6,restaurant,La Roca Suites & Restaurant,13.1562004,123.7460022
7,restaurant,Lola Ermas,12.9123001,123.5930023
8,restaurant,Ramboys Lechon and Restaurant,11.7158003,122.3539963
9,restaurant,Emerald Garden,14.5777998,120.9789963
10,restaurant,Spiral,14.5530996,120.9800034
11,restaurant,Phò Bac,14.5538998,121.0479965
12,restaurant,Zhu,14.5539999,121.0479965
13,restaurant,Pancake House,14.5511999,121.0500031
14,restaurant,Johnny B. Good,14.5523996,121.0260010
15,restaurant,L' Incontro,14.5656996,121.0230026
16,restaurant,Chihuahua,14.5517998,121.0199966
17,restaurant,Chicken Bacolod,14.5750999,120.9850006
18,restaurant,Cafe Nemoso,14.4832001,121.0350037
19,restaurant,Likha Diwa,14.6476002,121.0650024
20,restaurant,Racks,14.5846996,121.0609970
21,restaurant,Texas Roadhouse Grill,14.5507002,121.0500031
22,restaurant,Mang Pule's,14.8079004,121.0039978
23,restaurant,Pho 24,14.5646000,121.0360031
24,restaurant,Dulceline,14.6408005,121.0299988
25,restaurant,Pound by Todd English,14.5510998,121.0500031
26,restaurant,Chef Robert's Table,14.5106001,120.9990005
27,restaurant,TGI Friday's,14.5509996,121.0510025
28,restaurant,Kaya,14.5642996,121.0360031
29,restaurant,Greenery Kitchen,14.5720997,121.0139999
30,restaurant,Dampa,14.4947004,120.9919968
31,restaurant,Via Mare,14.5625000,121.0120010
32,restaurant,Garden Restaurant,14.5639000,121.0299988
33,restaurant,House of Mini's,14.5831003,121.0780029
34,restaurant,Shinjuku,14.5535002,121.0139999
35,restaurant,Kenny Rogers Roasters,14.5356998,120.9929962
36,restaurant,Zuchini,14.6296997,121.0319977
37,restaurant,Watami,14.5521002,121.0199966
38,restaurant,Ktv,14.5812998,121.0770035
39,restaurant,Pasto,14.5495996,121.0479965
40,restaurant,Bbq,14.6862001,121.0899963
41,restaurant,Mila's Lechon,14.6258001,120.9899979
42,restaurant,Grill 56,14.5812998,121.0599976
43,restaurant,Som's Noodle House,14.5677996,121.0240021
44,restaurant,Dencio's,14.5647001,121.0370026
45,restaurant,Smokeys,14.5628996,121.0110016
46,restaurant,My Steak N Grill,14.6346998,121.0309982
47,restaurant,Pizza Hut,14.6085997,121.0169983
48,restaurant,Coran Ihaw Ihaw Restaurant,14.8155003,120.9499969
49,restaurant,Max's Chicken,14.5767002,120.9840012
50,restaurant,Pizza Hut,14.5541000,121.0500031
51,restaurant,Highlands Steakhouse,14.5362997,120.9800034
52,restaurant,Cafe Caruso,14.5655003,121.0230026
53,restaurant,Buds,14.5813999,121.0599976
54,restaurant,Choi Garden,14.6050997,121.0550003
55,restaurant,New Kamameshi Sushi Bar,14.5644999,121.0019989
56,restaurant,Milky Way Café,14.5508003,121.0189972
57,restaurant,Yellow Cab Makati Ave,14.5668001,121.0309982
58,restaurant,Cucina Reposo,14.5677004,121.0240021
59,restaurant,Car Snack,14.5632000,121.0139999
60,restaurant,Sugi,14.5516996,121.0210037
61,restaurant,Gumbo,14.5764999,120.9840012
62,restaurant,Davids Teahaus,14.3316002,120.9390030
63,restaurant,Elbert's Steak Room,14.5611000,121.0260010
64,restaurant,Victorias Resto,14.8285999,121.0429993
65,restaurant,Pizza Hut,14.6788998,121.0319977
66,restaurant,Clawdaddy's,14.5499001,121.0520020
67,restaurant,Buddy's,14.5672998,121.0220032
68,restaurant,Kiko Suares Restaurant,14.5755997,121.0979996
69,restaurant,Marina Seafood Restaurant,14.5528002,120.9879990
70,restaurant,La Familia,14.9646997,120.9000015
71,restaurant,Josephine's,14.4373999,120.8970032
72,restaurant,Escolta,14.5556002,121.0250015
73,restaurant,Eurobake Bake Shop,14.8388004,120.8600006
74,restaurant,SumoSam,14.5651999,121.0370026
75,restaurant,Pizza Hut,14.4303999,121.0159988
76,restaurant,Padi's Point,14.6128998,121.1529999
77,restaurant,Motto Motto,14.5495005,121.0540009
78,restaurant,Sarsa At Inihaw,14.8087997,120.9459991
79,restaurant,Next Door,14.5637999,121.0289993
80,restaurant,Shakey's,14.5735998,121.0619965
81,restaurant,Paris Delice,14.5626001,121.0279999
82,restaurant,Kasbah,14.5496998,121.0479965
83,restaurant,Luk Foo Cantonese Kitchen,14.5011997,120.9970016
84,restaurant,Brazil Brazil,14.5650997,121.0360031
85,restaurant,Hossein's,14.5495996,121.0530014
86,restaurant,Ryu Ramen & Curry,14.6307001,121.0350037
87,restaurant,Filling Station,14.5635004,121.0299988
88,restaurant,Petra Restaurant,14.6015997,121.0540009
89,restaurant,Rub Ribs Bbq Makati Branch,14.5671997,121.0240021
90,restaurant,Trinity Restaurant,14.5451002,120.9860001
91,restaurant,Secret Recipe,14.5763998,120.9840012
92,restaurant,Makati Chef Garden Restaurant,14.5569000,121.0130005
93,restaurant,Andok's,14.6436005,121.0270004
94,restaurant,Yellow Cab,14.5790997,120.9779968
95,restaurant,Toho Antigua,14.4574003,121.0309982
96,restaurant,Iskatis,14.6063995,121.1729965
97,restaurant,JSEC,14.6377001,121.0759964
98,restaurant,Max's,14.5816002,121.1800003
99,restaurant,Pizza Hut,14.5811005,121.1760025
100,restaurant,E-Bai's (Former Manang's Location),14.6368999,121.0780029
101,restaurant,Shakey's,14.6363001,121.0739975
102,restaurant,Kenny Roger's Roasters,14.6374998,121.0739975
103,restaurant,The Old Spaghetti House,14.6163998,121.1429977
104,restaurant,Grilla,14.6164999,121.1429977
105,restaurant,Nayon,14.6071997,121.1650009
106,restaurant,Romblon Deli,12.5768995,122.2689972
107,restaurant,Republika Cafe,12.5768995,122.2689972
108,restaurant,Chippens Buffet,7.0701399,125.6139984
109,restaurant,Pizza Hut,14.3112001,121.0719986
110,restaurant,Hooters,14.5389996,120.9789963
111,restaurant,Tony Roma's,14.5510998,121.0260010
112,restaurant,Yayoy's Grill & Resto Bar,10.3127003,123.8899994
113,restaurant,STK ta Bay,10.3128996,123.8899994
114,restaurant,Ma Mon Luk,14.6001997,120.9840012
115,restaurant,Seafood Island,14.5363998,120.9789963
116,restaurant,Moon Garden,14.1264000,120.9680023
117,restaurant,Razon's,15.0305996,120.6750031
118,restaurant,Mien San Noodle House,14.6083002,121.0390015
119,restaurant,Happy Valley Noodle House,14.6082001,121.0390015
120,restaurant,Airport Juan,14.5236998,121.0000000
121,restaurant,Lomi House,15.1814003,120.5429993
122,restaurant,Hacienda Inn,13.9331999,121.6129990
123,restaurant,Pizza Hut,14.5740004,121.0479965
124,restaurant,Sambokojin,14.5980997,121.0589981
125,restaurant,Nawawalang Paraiso,14.0479002,121.5709991
126,restaurant,Hot Shot Grill,14.6384001,121.0370026
127,restaurant,G See,14.0679998,121.3249969
128,restaurant,Punta Isla Lake Resort,6.2174301,124.7050018
129,restaurant,Cyma Restuarant,10.3184996,123.9059982
130,restaurant,Laguna Cafe,10.3182001,123.9059982
131,restaurant,Kaishu Japanese Restuarant,10.3127003,124.0240021
132,restaurant,AA's BBQ Restaurant,10.3044004,123.9599991
133,restaurant,Bulalo Republic Restaurant,14.9334002,120.8789978
134,restaurant,Nakama Restuarant,14.9440002,120.8820038
135,restaurant,"Triple V (Dad's, Kamayan, Saisaki)",14.5980997,121.0589981
136,restaurant,Shakey's,14.5783997,121.0350037
137,restaurant,Shakey's,14.3476000,121.0650024
138,restaurant,Salt & Pepper,14.5979004,121.0589981
139,restaurant,The Red Crab,14.6300001,121.0339966
140,restaurant,Viking,10.3362999,123.9319992
141,restaurant,Lighthouse Restuarant,10.3108997,123.9029999
142,restaurant,The New White Gold House Rest,10.3064003,123.9100037
143,restaurant,Sagingrepablik,7.0766702,125.6080017
144,restaurant,Bamboo,7.0731201,125.6050034
145,restaurant,Colasa's Barbecue,7.0627999,125.6100006
146,restaurant,Whaw Ihaw - Ihaw,7.0702600,125.6080017
147,restaurant,Pard's Seafood Grill,7.0710402,125.6080017
148,restaurant,Coco's South Bistro,7.0602899,125.5879974
149,restaurant,Buffet Palace,7.0882702,125.6110001
150,restaurant,Probincya,7.0876002,125.6129990
151,restaurant,Ahfat 2 Seafood Plaza,7.0887299,125.6129990
152,restaurant,Kusina Agdao,7.0837402,125.6250000
153,restaurant,Penong's Barbecue,7.0764799,125.6139984
154,restaurant,Flyover Ihaw-ihaw,7.1023502,125.6149979
155,restaurant,Clydenjosh,14.0745001,121.3259964
156,restaurant,Tolgorie Restaurant,10.3379002,123.9300003
157,restaurant,Boosog Restaurant,10.3123999,123.8949966
158,restaurant,Andok's,14.5641003,121.0449982
159,restaurant,Bali Seafoods Paluto,14.1019001,120.9499969
160,restaurant,Buon Giorno,14.1015997,120.9499969
161,restaurant,Domicillo,14.1018000,120.9499969
162,restaurant,Fire Lake Grill,14.1016998,120.9499969
163,restaurant,Leslie's Terrace Garden,14.1021004,120.9520035
164,restaurant,Cafe Platito Atbp.,14.1016998,120.9499969
165,restaurant,Manukan Grille,14.0992002,120.9290009
166,restaurant,Giligans,14.0972004,120.9420013
167,restaurant,Merben Canteen Tapsilog,14.0994997,120.9240036
168,restaurant,Pamana,14.1125002,120.9599991
169,restaurant,Treffpunk,14.1484003,120.9940033
170,restaurant,Mile Hi Diner,14.1027002,120.9520035
171,restaurant,Meat Plus Cafe,14.8179998,120.2839966
172,restaurant,Apag Marangle Restaurant,15.0008001,120.6429977
173,restaurant,El Dorado,14.6625996,121.2009964
174,restaurant,Lola Diding's,14.6580000,121.0459976
175,restaurant,BFB,8.4817600,124.6490021
176,restaurant,North Park Nex,14.5847998,121.0660019
177,restaurant,Jna  Fishpen,9.1340103,124.7919998
178,restaurant,Pizzetta Greek,14.6443996,121.0609970
179,restaurant,007,14.6028004,121.0500031
180,restaurant,Nathaniels,15.0416002,120.6849976
181,restaurant,Car Wash Sevices,15.1619997,120.5960007
182,restaurant,Grill 99,15.1417999,120.5780029
183,restaurant,C3 Events,14.6035995,121.0520020
184,restaurant,Tokyo Tokyo,14.5606003,121.0149994
185,restaurant,Swagat,14.5551996,121.0179977
186,restaurant,Ming's Garden,14.1459999,120.9919968
187,restaurant,Conti's,14.4449997,121.0289993
188,restaurant,Mang Rudy's,14.5621996,121.0130005
189,restaurant,Aviles Bulalo Resto,14.1978998,121.1470032
190,restaurant,Melo's Steakhouse,14.6407003,121.0370026
191,restaurant,Pancake House,14.6402998,121.0739975
192,restaurant,Sizzlin' Pepper Steak,14.6393995,121.0739975
193,restaurant,The Fat Persian,14.6393995,121.0739975
194,restaurant,Teriyaki Boy,14.6386995,121.0739975
195,restaurant,Craving's,14.6352997,121.0739975
196,restaurant,Chicken Bacolod,14.6396999,121.0739975
197,restaurant,The Old Spaghetti House,14.6396999,121.0739975
198,restaurant,Tapa King,14.6392002,121.0739975
199,restaurant,Flaming Wings,14.6394997,121.0739975
200,restaurant,Sweet Inspirations,14.6384001,121.0739975
201,restaurant,Yellow Cab,14.6392002,121.0739975
202,restaurant,Chateau Hestia Garden Restaurant,14.1450005,120.9739990
203,restaurant,Amoroma,14.1264000,120.9789963
204,restaurant,Cafe 5R resto,11.2742996,124.0640030
205,restaurant,Gerry's Grill,7.0784702,125.6139984
206,restaurant,Pizza Hut,7.0784101,125.6129990
207,restaurant,Felis Beach Resort Complex,7.0409598,125.5729980
208,restaurant,Twin H Beach Resort,7.0423698,125.5839996
209,restaurant,Yahong,7.0822501,125.6100006
210,restaurant,Cubyertos,7.0823202,125.6100006
211,restaurant,La Grotta Italian Restaurant,10.4913998,123.4000015
212,restaurant,Moms Small Hotel And Restaurant,10.4863005,123.4150009
213,restaurant,Waddy's Place,10.5221004,123.3270035
214,restaurant,Swiss Deli,7.1011200,125.6330032
215,restaurant,Yellow Cab Pizza Co.,7.1018701,125.6330032
216,restaurant,Merco,7.1023502,125.6330032
217,restaurant,Viewpoint Restaurant and Inn,14.0881004,120.9059982
218,restaurant,Tower Ground Bulalohan,14.0906000,120.9120026
219,restaurant,Kanin Club,14.2484999,121.0640030
220,restaurant,Poquito Mas,14.2489004,121.0640030
221,restaurant,Pancake House,14.2491999,121.0640030
222,restaurant,Bernadette's Lechon,10.3105001,123.9150009
223,restaurant,Jo's Chicken Inasal,10.3259001,123.9229965
224,restaurant,Mikado Japanese Restuarant,10.3216000,123.9039993
225,restaurant,Balaw Balaw Specialty Restaurant,14.5276003,121.1579971
226,restaurant,Exotik Restaurant,14.3402996,121.4830017
227,restaurant,Tio Pedro's Mexican Restaurant,14.4493999,121.0299988
228,restaurant,Pizza Hut,14.4448004,121.0289993
229,restaurant,Herencia De Paoay,18.0625000,120.5199966
230,restaurant,Apung Kula,7.0672698,125.6080017
231,restaurant,Honey Bear Chicken House,7.0750899,125.6110001
232,restaurant,Harinok,7.0665898,125.6090012
233,restaurant,Paterno's,7.0674601,125.6159973
234,restaurant,New Asia Restaurant,7.0746999,125.6129990
235,restaurant,Mandarin Tea Garden,7.0763402,125.6159973
236,restaurant,North Park,14.5595999,121.0159988
237,restaurant,Max's Restaurant,14.5595999,121.0159988
238,restaurant,Chowking,14.6210003,121.0630035
239,restaurant,Mandarin,7.0659699,125.6100006
240,restaurant,Mandarin Tea Garden,7.0688601,125.6060028
241,restaurant,Kusina Selera,7.0680799,125.6060028
242,restaurant,Davao Lounge,7.0685401,125.6060028
243,restaurant,Sisig Society,14.5564003,121.0199966
244,restaurant,Tokyo Tokyo To Go,14.5567999,121.0189972
245,restaurant,Andoks,14.5518999,121.0130005
246,restaurant,Sinangag Express,14.5523005,121.0139999
247,restaurant,Amici,14.5513000,121.0139999
248,restaurant,Hagar's Place,7.1065602,125.6460037
249,restaurant,Panadero,7.0653100,125.6060028
250,restaurant,Yellow Cab Pizza Co.,14.5607004,121.0149994
251,restaurant,Karlyn's,7.0776200,125.5820007
252,restaurant,Chino's,14.1688995,121.2440033
253,restaurant,Magellan's Garden Grill & Restobar,15.7981997,120.9950027
254,restaurant,Marquez Restaurant,15.7980003,120.9940033
255,restaurant,Tachibana Izakaya Robota,14.5499001,121.0230026
256,restaurant,Isshin,14.5488005,121.0250015
257,restaurant,Yakiniku sakura,14.5490999,121.0240021
258,restaurant,Golden Brown,7.0685101,125.6060028
259,restaurant,Azuthai,14.5508003,121.0189972
260,restaurant,Tsukiji,14.5508003,121.0189972
261,restaurant,Cirkulo,14.5508003,121.0189972
262,restaurant,Kikufuji,14.5536003,121.0139999
263,restaurant,Shakey's,14.5529003,121.0139999
264,restaurant,Pia's Cafe,7.0566602,125.5999985
265,restaurant,Pancake House,14.6215000,121.0230026
266,restaurant,Dencio's,7.0677900,125.6070023
267,restaurant,Starburst Hardware,7.0137100,125.4960022
268,restaurant,Mars Agri Business,7.0137200,125.4960022
269,restaurant,Bulls,7.0993900,125.6149979
270,restaurant,121 Grill and Restaurant,14.5600996,121.0240021
271,restaurant,Apartment 1B,14.5590000,121.0220032
272,restaurant,Cafe Alfonso,14.5592003,121.0220032
273,restaurant,Gonzo Grill and Restaurant,14.5592003,121.0220032
274,restaurant,North Park,14.5591002,121.0220032
275,restaurant,Bento box,14.5595999,121.0199966
276,restaurant,KFC,14.5600996,121.0199966
277,restaurant,Lugaw Ni Bossing,11.0045996,124.6110001
278,restaurant,Andoks,11.0033998,124.6100006
279,restaurant,Gutierrez Catering & Function House,7.0790601,125.5459976
280,restaurant,Matutina's,15.4757004,120.5960007
281,restaurant,Cafe Margarita,16.2248001,120.4720001
282,restaurant,Natalna,16.5795994,120.3150024
283,restaurant,Perfect Loaf,15.1345997,120.5879974
284,restaurant,Bellini's,14.6225004,121.0569992
285,restaurant,Mandarin,7.0503898,125.5879974
286,restaurant,Mang Inasal,7.0492601,125.5879974
287,restaurant,Bigby's Cafe,7.0503101,125.5879974
288,restaurant,Pizza Hut,7.0501900,125.5879974
289,restaurant,Yellow Cab,7.0501299,125.5879974
290,restaurant,Greenwich,7.0502601,125.5879974
291,restaurant,Mandarin,7.0781102,125.6139984
292,restaurant,Lucky Rainbow,14.5479002,121.0139999
293,restaurant,Patpat's Kansi,14.5660000,121.0090027
294,restaurant,Conti's,14.5497999,121.0540009
295,restaurant,Gary's Restaurant,14.5784998,120.9869995
296,restaurant,Hizon's,14.5789003,120.9820023
297,restaurant,LGA Froglegs,14.6014996,120.9769974
298,restaurant,Mister Kebab,14.6409998,121.0260010
299,restaurant,LZM Restaurant,14.2293997,120.9710007
300,restaurant,Hap Chan,14.5353003,121.0469971
301,restaurant,Razon's,14.5352001,121.0479965
302,restaurant,Bacolod Chicken Inasal,14.5349998,121.0479965
303,restaurant,Elysee's Restaurant & Coffee Club,7.1111598,125.6500015
304,restaurant,Boiling Crabs and Shrimps,7.0995498,125.6259995
305,restaurant,Dimsum Diner,7.0968399,125.6179962
306,restaurant,La Piscine Grill & Cafe,7.0905099,125.6159973
307,restaurant,Cook Book,15.0853004,120.6350021
308,restaurant,Bistro Van Gough,15.0853996,120.6350021
309,restaurant,Tiananmen,14.5635996,121.0289993
310,restaurant,Pizza Hut,14.5640001,121.0289993
311,restaurant,Ziggurat Cuisine,14.5635004,121.0289993
312,restaurant,La Tienda,14.5623999,121.0289993
313,restaurant,Dalampasigan Restaurant,14.1824999,121.2239990
314,restaurant,Earl's Deli,14.5616999,121.0159988
315,restaurant,New Bombay,14.5616999,121.0159988
316,restaurant,North Park,14.5506001,121.0559998
317,restaurant,Sunset Bay Garden,16.5900002,120.3020020
318,restaurant,Cecil's Snack Inn,7.0678902,125.6080017
319,restaurant,Sinbad,7.0688801,125.6129990
320,restaurant,Casa Plaza Restaurant,13.9638996,121.5250015
321,restaurant,Don Lauro's Restaurant,13.9625998,121.5260010
322,restaurant,Treat House Restaurant,13.9622002,121.5240021
323,restaurant,Aysee,14.5771999,121.0670013
324,restaurant,Andok's,14.1363001,121.4160004
325,restaurant,Balinsasayaw,9.7353697,118.7480011
326,restaurant,Deloro,9.7370100,118.7649994
327,restaurant,river walk,7.0972199,125.5999985
328,restaurant,Don Henrico's,14.6169996,121.1009979
329,restaurant,Pancake House,14.3552999,121.0439987
330,restaurant,Asmara Restaurant and Bar,10.3449001,123.9110031
331,restaurant,Mountain Bayside,9.7734804,118.7289963
332,restaurant,Ho Chai Lai,14.3818998,121.0449982
333,restaurant,Sizzlers,14.1695995,121.2440033
334,restaurant,Ihaw-Ihaw sa Lawa,14.0818005,121.3259964
335,restaurant,Rose and Grace,14.1111002,121.1439972
336,restaurant,Joven Restaurant & Manila FoodShop,10.3246002,123.9349976
337,restaurant,Big Nico's,14.1724997,121.2429962
338,restaurant,Onyang's Street Wings,14.1704998,121.2440033
339,restaurant,Dimsum vs Sushi,15.0438004,120.6880035
340,restaurant,Cafe Fernandino,15.0335999,120.6869965
341,restaurant,Susie's Cuisine,15.0416002,120.6770020
342,restaurant,Motorista,14.6169004,121.0049973
343,restaurant,5 Aces,14.6136999,121.0009995
344,restaurant,Arabela,14.1316004,121.4359970
345,restaurant,Ichiban-ya,14.5670004,120.9860001
346,restaurant,Akira Ramen,14.5521002,120.9899979
347,restaurant,Tan Tan Men House,14.5565004,121.0189972
348,restaurant,Pizza Hut,14.5539999,120.9980011
349,restaurant,Nemoto Restaurant,14.5545998,120.9980011
350,restaurant,Family Circle Canteen,14.1602001,121.2409973
351,restaurant,Faustina's,14.1682997,121.2409973
352,restaurant,Plaza Pino,10.3318996,123.9000015
353,restaurant,Prosperity Food House,14.0705996,121.3040009
354,restaurant,Ombu Chicken House,7.0760698,125.6210022
355,restaurant,Antonio's Bar & Grill,7.0787902,125.6080017
356,restaurant,Ramzi,14.0720997,121.3259964
357,restaurant,JE'S Mami House,14.0648003,121.3219986
358,restaurant,College Coop Store,14.1646004,121.2409973
359,restaurant,Blackbeard's Seafood Island,14.6093998,121.0810013
360,restaurant,Pasto,14.6096001,121.0810013
361,restaurant,Outback Steakhouse,14.6091995,121.0800018
362,restaurant,TGI Friday's,14.6092997,121.0800018
363,restaurant,Agave Mexican Cantina,14.6094999,121.0810013
364,restaurant,Pho Hoa,14.6086998,121.0810013
365,restaurant,Super Bowl of China,14.6087999,121.0810013
366,restaurant,Aliya Restaurant,15.7653999,121.5660019
367,restaurant,Daniela,14.1688995,121.2440033
368,restaurant,Dhenzmer's Extension,14.1690998,121.2409973
369,restaurant,Mango Grill,14.6981001,120.9530029
370,restaurant,Head Quarters Bar,14.7025995,120.9430008
371,restaurant,Obando Grill,14.7047005,120.9410019
372,restaurant,Bulaluhan sa N. Ramirez,14.6147003,121.0049973
373,restaurant,Red Palmas Restuarant,14.6915998,120.9520035
374,restaurant,Gq Resto,14.7986002,120.9250031
375,restaurant,Salakab Resto,14.7890997,120.9309998
376,restaurant,Happy Home,11.9629002,121.9300003
377,restaurant,Pizza Hut,14.7013998,121.0350037
378,restaurant,MR. T. Inasal,14.6731997,120.9820023
379,restaurant,Azutea De Lago,14.0740004,121.3259964
380,restaurant,Sizzling House,14.9050999,120.8690033
381,restaurant,Max's,14.9031000,120.8679962
382,restaurant,Nikohai,14.4036999,120.9769974
383,restaurant,Pizza Volante,16.4123001,120.5979996
384,restaurant,Tea House,16.4125996,120.5979996
385,restaurant,Daño beach resort,11.3273001,124.1200027
386,restaurant,Green AP,10.3137999,123.9580002
387,restaurant,Victory Panciteria,14.6234999,121.0940018
388,restaurant,Berganio Tabo Panciteria,14.6237001,121.0950012
389,restaurant,Salud Panciteria,14.6267996,121.0970001
390,restaurant,Lola Helen Panciteria,14.6357002,121.0940018
391,restaurant,Krung Thai,14.6327000,121.0960007
392,restaurant,Johnny's Fried Chicken,14.6327000,121.0960007
393,restaurant,Era Plaza,14.5124998,121.2389984
394,restaurant,Sizzling & Combo Food Haus,14.1520004,121.2350006
395,restaurant,Braya Tea House,14.5662003,121.0339966
396,restaurant,Cifu Asian Cooking,14.5747004,120.9850006
397,restaurant,Mo Jo,14.5745001,120.9840012
398,restaurant,uloy's BBQ,7.0977898,125.6210022
399,restaurant,Triad Coffee Shop;Larena Triad Restaurant & Bakeshop,9.2392797,123.5839996
400,restaurant,Museum Café,14.5534000,121.0230026
401,restaurant,Lolo Claro's Restaurant,14.2779999,120.7399979
402,restaurant,Harbor View Bistro,14.5374002,120.9789963
403,restaurant,Joey's 4x & Force,14.6107998,121.0370026
404,restaurant,Amazing Cones,14.6140003,121.0370026
405,restaurant,Gerry's Grill,14.6386995,121.0360031
406,restaurant,Al Dente,10.6997995,122.5569992
407,restaurant,The Mellow Mangrove,10.7009001,122.5579987
408,restaurant,Naga Garden,13.6231003,123.1849976
409,restaurant,Naga Oyster,13.6218004,123.1849976
410,restaurant,Wok,13.6322002,123.1959991
411,restaurant,Chili Peppers,13.6317997,123.1969986
412,restaurant,Shakey's,13.6322002,123.1959991
413,restaurant,Tribo Grill,13.6239996,123.1949997
414,restaurant,Podo Grill,13.6199999,123.2009964
415,restaurant,1st Colonial Grill,13.6250000,123.1859970
416,restaurant,Carlo's Pizza,14.4983997,121.0149994
417,restaurant,Green Seas Seafood,14.5986996,120.9779968
418,restaurant,Aroma,11.7354002,122.3339996
419,restaurant,Pizza Hut,14.5985003,120.9789963
420,restaurant,King Bee,14.2917004,120.9100037
421,restaurant,Plaza Canteen,14.3859997,120.8799973
422,restaurant,King Crab House,14.5024004,120.9990005
423,restaurant,Pizza Hut,14.4944000,120.9929962
424,restaurant,Dong Bei,14.6012001,120.9749985
425,restaurant,Pizza Hut,14.4650002,121.0199966
426,restaurant,Mrs. B's Food Box,14.4970999,121.0210037
427,restaurant,Sanso Grill,14.4952002,121.0139999
428,restaurant,Le Delice,14.5022001,121.0210037
429,restaurant,Kenny Rogers' Roasters,14.5630999,120.9950027
430,restaurant,El Torro,13.7869997,121.0569992
431,restaurant,Chilli Pepper,14.5584002,121.0220032
432,restaurant,Coquina,14.5608997,121.0250015
433,restaurant,Kitaro,14.5611000,121.0250015
434,restaurant,Säntis,14.1431999,120.9560013
435,restaurant,Taal Bistro,13.8788996,120.9229965
436,restaurant,Kitchen Pantry,7.0745602,125.6129990
437,restaurant,Lets Crab Eat,7.0818601,125.6110001
438,restaurant,Taal Bayview Bistro,13.8875999,120.9369965
439,restaurant,Barbeque Boss,7.0807700,125.6110001
440,restaurant,Pinutos Republik,7.0806799,125.6100006
441,restaurant,Mandarin Tea Garden,7.0707002,125.6050034
442,restaurant,Kuya J's Restaurant,14.5614996,120.9899979
443,restaurant,Tempura Sam,14.2922001,120.9079971
444,restaurant,Gerry's Grill,14.3016005,120.9540024
445,restaurant,Shakeys,14.3004999,120.9570007
446,restaurant,Famous Cabagan Pancit Restaurants,17.4251003,121.7770004
447,restaurant,Kitty's Kitchen,11.7083998,122.3629990
448,restaurant,North Park,14.3780003,121.0459976
449,restaurant,Buto't Balat,10.7112999,122.5510025
450,restaurant,Carlitos,10.7264996,122.5569992
451,restaurant,Cafe Mary Grace,14.4225998,121.0289993
452,restaurant,Calle Real,14.4099998,120.8779984
453,restaurant,Urashima,14.4104004,120.8779984
454,restaurant,Kyo Hachi,14.4066000,120.8779984
455,restaurant,Four Seasons,15.1931000,120.5400009
456,restaurant,Marikit Na Hapag Kainan,14.6248999,121.1029968
457,restaurant,Batis Azul,15.1308002,120.5970001
458,restaurant,La Tora's Garden,14.6307001,121.0950012
459,restaurant,Bacolod Chicken House,14.5665998,121.0139999
460,restaurant,Chicken House,10.6850996,122.9570007
461,restaurant,Isdaan Gerona,15.5932999,120.6100006
462,restaurant,Elbusero,10.4117002,119.1770020
463,restaurant,Sérye,14.4572001,121.0360031
464,restaurant,City Lunch,10.6733999,122.9580002
465,restaurant,Chocolate Fire,14.5600004,121.0199966
466,restaurant,Lan Ten Lomi,10.6718998,122.9570007
467,restaurant,Chinky's,10.6959000,122.9609985
468,restaurant,Mang Inasal,10.6629000,122.9670029
469,restaurant,Acacia Grill,10.6795998,122.9580002
470,restaurant,Rib Eye,15.1639996,120.5889969
471,restaurant,Bistro Garitoni,15.8807001,120.6009979
472,restaurant,Max's Fried Chicken,15.9454002,120.5800018
473,restaurant,Don Henricos,14.6457005,121.0279999
474,restaurant,Hap Chan,14.6452999,121.0279999
475,restaurant,Cabalen,14.6456003,121.0270004
476,restaurant,Shantung Restaurant,14.6477003,121.0289993
477,restaurant,Grills and Sizzles,14.6423998,121.0319977
478,restaurant,Robina's Chicken,14.6569004,121.0189972
479,restaurant,Lola Idang's Bahay Pansitan,14.6420002,121.0329971
480,restaurant,Aberdeen Court,14.6395998,121.0289993
481,restaurant,Maranao Grill,15.1651001,120.5619965
482,restaurant,Mar's Garden,15.1598997,120.5910034
483,restaurant,Old Swiss Inn,14.5563002,121.0260010
484,restaurant,Sea breeze Resto,10.6463003,124.3860016
485,restaurant,Grand Palazzo Royal,15.1393995,120.5609970
486,restaurant,Pizza Hut,9.6418695,123.8560028
487,restaurant,Mang Inasal,10.3247995,123.9769974
488,restaurant,camalig,15.1351995,120.5889969
489,restaurant,Camp 3 Eatery,16.2908993,120.5889969
490,restaurant,House of Waffles,16.4039993,120.6149979
491,restaurant,big bellys,14.5716000,121.0479965
492,restaurant,ArAma Café,14.5497999,121.0540009
493,restaurant,Dolora's Hauz of Pancit Malabon (Barangka Branch),14.6329002,121.0830002
494,restaurant,Red Paint Bar & Grill,14.6337004,121.0849991
495,restaurant,Gangnam Korean,13.8950996,120.9059982
496,restaurant,La Jardin de Virgilia,14.0599003,121.3160019
497,restaurant,Hap Chan,14.4521999,120.9769974
498,restaurant,Italianni's,14.4244003,121.0319977
499,restaurant,Quan,10.6814003,122.9639969
500,restaurant,Natures Restaurant,10.6735001,122.9589996
501,restaurant,Bacolod Cansi House,10.6733999,122.9599991
502,restaurant,Ting Ting's,10.6759005,122.9609985
503,restaurant,Time Out,10.6696997,122.9509964
504,restaurant,Imays,10.6749001,122.9540024
505,restaurant,Quan,10.6754999,122.9530029
506,restaurant,Jo's Chicken Inato,10.6702003,122.9540024
507,restaurant,D' Breakers,10.6714001,122.9479980
508,restaurant,Taste Station,10.6799002,122.9589996
509,restaurant,Bob's,10.6805000,122.9619980
510,restaurant,La Preciosa,18.1977005,120.5889969
511,restaurant,Cainta Gymnasium,14.5871000,121.0790024
512,restaurant,Big Red Barn,14.5875998,121.0780029
513,restaurant,Teriyaki Boy,14.5874004,121.0780029
514,restaurant,Blue Whale Grill,14.5879002,121.0780029
515,restaurant,Mang Inasal,14.6183996,121.0930023
516,restaurant,Bakahan at Manukan,14.6192999,121.0970001
517,restaurant,Barrio Fiesta,14.6191998,121.0970001
518,restaurant,Sa Banda Rito! (resto),14.6215000,121.0930023
519,restaurant,Pizza Hut,14.6205997,121.1029968
520,restaurant,Abel's Lechon Pinoy Deli,14.6208000,121.1039963
521,restaurant,Mama Lily!,14.6225004,121.1090012
522,restaurant,Charlie Wanton Chinese Restaurant,14.6220999,121.1100006
523,restaurant,Golden Bibi at Iba Pa Restaurant,14.6226997,121.1119995
524,restaurant,Barbecue ni Suki,14.6265001,121.0970001
525,restaurant,Chacha's Lutong Bahay,14.6271000,121.0970001
526,restaurant,L&M Grill and Restaurant,14.6239004,121.1179962
527,restaurant,Dampa sa Antipolo,14.6244001,121.1190033
528,restaurant,King Bee Chinese Restaurant,14.6244001,121.1210022
529,restaurant,Pizza Hut,14.6251001,121.1240005
530,restaurant,Andok's Lechon,14.6251001,121.1240005
531,restaurant,Natures Restaurant,10.6735001,122.9589996
532,restaurant,Golden lion,10.6703997,122.9459991
533,restaurant,Chinkys Libertad,10.6604996,122.9489975
534,restaurant,Rental,14.0588999,121.3190002
535,restaurant,Davao Famous,7.0736799,125.6149979
536,restaurant,Non La Aromasit,10.3226995,119.3450012
537,restaurant,Tom Tom Club,9.7365799,118.7490005
538,restaurant,Rizal BBQ Special,14.5761003,121.1439972
539,restaurant,Mang Inasal,10.6599998,122.9489975
540,restaurant,New Orleans,14.5499001,121.0520020
541,restaurant,Mini Shabu-Shabu,14.5497999,121.0530014
542,restaurant,Agave Mexican Cantina,14.5509005,121.0510025
543,restaurant,Ikkoryu Fukuoka Ramen,14.5503998,121.0520020
544,restaurant,Italianni's,14.5499001,121.0520020
545,restaurant,Kabisera,14.5513000,121.0500031
546,restaurant,Cav,14.5508003,121.0520020
547,restaurant,Ereneos Mountain view Restaurant,13.9150000,121.0709991
548,restaurant,Chinky's,10.6604004,122.9509964
549,restaurant,Zong,14.2481003,121.0650024
550,restaurant,SIR,10.7946997,122.9729996
551,restaurant,Hestia's,10.7993002,122.9759979
552,restaurant,Mila's,10.1992998,122.8649979
553,restaurant,Shakey's,14.6371002,121.0250015
554,restaurant,Marina,14.6367998,121.0279999
555,restaurant,Tempura Haus,11.0143995,124.5950012
556,restaurant,Shangri-La,14.6386995,121.0270004
557,restaurant,Baliwag,16.4127998,120.5930023
558,restaurant,Doloras Pantalan Grill,14.6238003,121.1019974
559,restaurant,Mom's Kitchen Diner,14.6225004,121.0970001
560,restaurant,Ilustrado,14.5878000,120.9769974
561,restaurant,Jo's Milagrina,11.0115004,124.6090012
562,restaurant,JT's Manukan,14.5846996,121.0650024
563,restaurant,Rufo's Tapa,14.5801001,121.0599976
564,restaurant,Pancake House,14.5803003,121.0599976
565,restaurant,BlueFrog,14.5858002,121.0660019
566,restaurant,Brooklyn Pizza,14.5846004,121.0670013
567,restaurant,Misato,14.5873003,121.0640030
568,restaurant,Ye Dang Korean Barbecue,14.5857000,121.0640030
569,restaurant,Yellow Cab,14.5848999,121.0630035
570,restaurant,Pancake House,14.5871000,121.0650024
571,restaurant,Woodfire Grill Republic,14.5866003,121.0650024
572,restaurant,Ang Pulo,14.5876999,121.0670013
573,restaurant,Pancake House,14.5864000,121.0619965
574,restaurant,Buddy's,14.5817003,121.0609970
575,restaurant,Manong Pepe's,14.5838003,121.0619965
576,restaurant,Tip-C Restobar,14.5761003,121.0599976
577,restaurant,Traveller's Fast Food,7.6045499,125.1630020
578,restaurant,Santander Hito,7.1237001,125.4800034
579,restaurant,Dose,7.1420498,125.6610031
580,restaurant,Golden Egg,7.1238198,125.4800034
581,restaurant,Pancake House,14.5866003,121.0599976
582,restaurant,Geewan,13.6243000,123.1849976
583,restaurant,Ha Yuan,14.6353998,121.0279999
584,restaurant,Coconut House,14.6518002,121.0510025
585,restaurant,Nanay Bebeng's,7.0786200,125.6050034
586,restaurant,Vimarie Food House,14.1696997,121.2440033
587,restaurant,Luring's Restaurant,14.9719000,120.6299973
588,restaurant,Sea of Galilee Crab House,6.1221199,125.1900024
589,restaurant,Hill Side,6.4058399,124.8830032
590,restaurant,Sadok Restaurant,6.2129698,125.0660019
591,restaurant,Durian Garden,6.2560701,125.0220032
592,restaurant,Villagio,6.1999998,125.0790024
593,restaurant,Buhay Bario,6.1560302,125.1240005
594,restaurant,Jay's Lechon,6.2016101,125.0770035
595,restaurant,AVL Restaurant,6.1301699,125.1979980
596,restaurant,Wa Ki Restaurant,7.0604300,125.5640030
597,restaurant,Rosas Lechon,6.2147999,125.0609970
598,restaurant,Penongs,7.0209498,125.4980011
599,restaurant,Hana Japanese Cutlet,14.4553003,121.0139999
600,restaurant,Flaming Wings,14.4559002,121.0100021
601,restaurant,Sinangag Express,14.4561005,121.0090027
602,restaurant,Little Rio,14.4561996,121.0090027
603,restaurant,Gourmet's Palate Charbroiled Burgers,14.4559002,121.0090027
604,restaurant,Toto's Lechon,14.4556999,121.0120010
605,restaurant,Food De' Sentosa,14.4559002,121.0100021
606,restaurant,Aucklands Family Restaurant,14.4553003,121.0139999
607,restaurant,Min Restaurant,14.4559002,121.0100021
608,restaurant,Niro Cafe & Pizzeria,14.4554996,121.0130005
609,restaurant,Baliwag Lechon Manok,14.4560003,121.0090027
610,restaurant,Clarte's Pizza,14.1702995,121.1380005
611,restaurant,Ate Emms Goto,14.1526003,121.1370010
612,restaurant,Romy's Special Lechon,13.7806997,121.0680008
613,restaurant,Copacabana Resto Bar,14.1691999,121.2450027
614,restaurant,Siomai Foodhaus,14.1687002,121.2440033
615,restaurant,Cube's Sizzling Restobar,14.1694002,121.2450027
616,restaurant,Mommy Ludy's Cuisine,14.1695004,121.2450027
617,restaurant,KumPARES,14.1695995,121.2450027
618,restaurant,Lla Grace Cafe,14.3645000,121.4830017
619,restaurant,Caluwayan Palm Island Beach Resort & Restaurant,11.2168999,125.1809998
620,restaurant,Delica's Garden Grill & Business Center,13.7705002,121.0650024
621,restaurant,TNF Disco Pub & Restaurant,13.7669001,121.0619965
622,restaurant,Riggs Cafe Bar & Restaurant,13.7702999,121.0650024
623,restaurant,Dave's Tropical Breeze,14.6392002,121.0289993
624,restaurant,Herb Republic,14.1759005,121.2429962
625,restaurant,Chubby Habbi's,14.1684999,121.2409973
626,restaurant,Mio Cantina,14.1721001,121.2429962
627,restaurant,Melo's Steakhouse,14.4221001,121.0339966
628,restaurant,MDLD Grocery,15.0151997,120.7040024
629,restaurant,Triboo Grill,13.6309996,123.1969986
630,restaurant,Grilling Point,13.6323996,123.1979980
631,restaurant,Red Platter,13.6311998,123.1969986
632,restaurant,Fortune Hongkong Restaurant,15.0316000,120.6760025
633,restaurant,Bubusuk Restaurant,15.0304003,120.6760025
634,restaurant,Joyous Resort,14.6871004,120.5459976
635,restaurant,Yellow Cab,14.5871000,121.0619965
636,restaurant,Reyes Barbeque,14.5865002,121.0619965
637,restaurant,Shakey's,14.5846996,121.0609970
638,restaurant,Archipelago 7107,14.5851002,121.0609970
639,restaurant,Atchie's,14.5851002,121.0599976
640,restaurant,Nagomi,14.5850000,121.0599976
641,restaurant,Sone Do,14.5850000,121.0599976
642,restaurant,Conching Native Chicken and Fastfood,10.3107996,123.9150009
643,restaurant,Green Kitchen Restaurant,15.1032000,120.6169968
644,restaurant,Nena's Garden Restaurant,16.0820007,120.3450012
645,restaurant,Big Star,14.1680002,121.2419968
646,restaurant,China Palace,14.1457996,121.0370026
647,restaurant,Chowking,14.4449997,120.9940033
648,restaurant,Red RickShaw,15.0858002,120.6340027
649,restaurant,Holiday Land,15.0339003,120.6770020
650,restaurant,Pizza Hut,14.6514997,120.9830017
651,restaurant,Red Dragon Rest,14.6514997,120.9830017
652,restaurant,ORIENT Pearl Seafood Restaurant,14.6518002,120.9820023
653,restaurant,Akira Sushi & Tepanyaki,14.5523005,121.0449982
654,restaurant,Melo's,14.5523005,121.0439987
655,restaurant,Southern Grind Bistro,14.5523996,121.0449982
656,restaurant,Gambino,14.5523996,121.0449982
657,restaurant,Henry's place,14.5523005,121.0449982
658,restaurant,Sunrise Buckets,14.5523996,121.0449982
659,restaurant,San Pablo Restaurant & Catering,14.9680004,120.6220016
660,dive_centre,Sea Explorers,9.5486498,123.7730026
661,restaurant,Michael's Restaurant,14.4762001,121.1959991
662,restaurant,Rai Rai Ken,14.3114004,121.0719986
663,restaurant,Cafe France,14.3109999,121.0719986
664,restaurant,Cindy's Restaurant,15.4903002,120.5910034
665,restaurant,Trellis,14.5487003,121.0559998
666,restaurant,Luring's Restaurant,15.0723000,120.6449966
667,restaurant,The Tent,13.6336002,123.1949997
668,restaurant,Lachi's,7.0818701,125.6019974
669,restaurant,Dulangs Restaurant,15.0538998,120.6610031
670,restaurant,DJC Halo-Halo,13.4575996,123.6809998
671,restaurant,Songdo-won+Jinmateu 송도원+진마트,14.5452003,120.9879990
672,restaurant,Maru,14.5465002,120.9879990
673,restaurant,Tita Pining Lugawan,14.8232002,120.9520035
674,restaurant,Barko,14.7545004,120.9540024
675,restaurant,Pancake House,14.5824003,120.9840012
676,restaurant,Max's Restaurant,14.8546000,120.8150024
677,restaurant,Fortune Chinese Restaurant,14.8544998,120.8150024
678,restaurant,Magic Wand,14.4413996,120.9919968
679,restaurant,Sylvia's Restaurant,15.0777998,120.6409988
680,restaurant,Young Attitudes Patisserie,11.0045996,124.6090012
681,restaurant,Gen's Kitchenette,11.0038004,124.6129990
682,restaurant,Fat Choi,11.0046997,124.6110001
683,restaurant,Bahia Coffee Shop,11.0045996,124.6080017
684,restaurant,Yellow Cab,14.4568005,121.0360031
685,restaurant,Bella's Restobar,11.0070000,124.6080017
686,restaurant,Shakey's,14.6063004,121.0790024
687,restaurant,Rosita's Restaurant,10.3830996,125.2139969
688,restaurant,Benoks,13.9434004,121.1569977
689,restaurant,Chowking,13.9412003,121.1620026
690,restaurant,Renfel Lomi,13.9439001,121.1600037
691,restaurant,Kusinas,11.5920000,122.0950012
692,restaurant,Spar Restaurant,11.4259996,122.0550003
693,restaurant,Andok's,14.2219000,120.9739990
694,restaurant,Moon Park,14.2438002,120.9759979
695,restaurant,Tender Bob's,14.6034002,121.0510025
696,restaurant,Teriyaki Boy,14.6032000,121.0510025
697,restaurant,Vegas Cafe,16.6151009,120.2880020
698,restaurant,Olives Restaurant,16.6091995,120.2860031
699,restaurant,LU RiverFarm SeaFoods,16.7106991,120.3430023
700,restaurant,Surfer's Retreat Restaurant,16.6562004,120.3209991
701,restaurant,Urbiztondo Grill,16.6558990,120.3199997
702,restaurant,NE Bakeshop,15.4935999,120.9759979
703,restaurant,Singing Cook And Waitresses,14.5517998,120.9899979
704,restaurant,Max's Restaurant,14.5320997,121.0210037
705,restaurant,Reyes Barbeque,14.5316000,121.0210037
706,restaurant,Mandarin,15.0284996,120.6940002
707,restaurant,Bob's Halu-halo,14.6176004,121.0159988
708,restaurant,Hap Chan,14.1605997,121.1389999
709,restaurant,Sabel Roast,15.0400000,120.6819992
710,restaurant,Fortside Manok,10.7139997,122.5550003
711,restaurant,Mansion Garden,10.6914997,122.5719986
712,restaurant,Jobet'sGrill Restobar,14.6348000,121.0940018
713,restaurant,L'Opera,14.5493002,121.0479965
714,restaurant,Jill's,14.5495005,121.0479965
715,restaurant,Brick and Mortar,14.5493002,121.0479965
716,restaurant,Acuaria,9.7021999,122.3889999
717,restaurant,Morning Shine Restaurant,14.3931999,120.8639984
718,restaurant,Bonchon Chicken,14.6320000,121.0830002
719,restaurant,Española Upholstery Supply,10.6954002,122.5690002
720,restaurant,Mr. Cow,10.6950998,122.5690002
721,restaurant,Mang Inasal,10.6934996,122.5709991
722,restaurant,Fort Manokan,10.6879997,122.5800018
723,restaurant,Mama Gan,10.6977997,122.5699997
724,restaurant,Jo's Inato,10.6971998,122.5670013
725,restaurant,Summer House,10.6980000,122.5699997
726,restaurant,Red's,10.6960001,122.5449982
727,restaurant,Samurai,10.7068005,122.5530014
728,restaurant,Uncle toms,10.7198000,122.5599976
729,restaurant,Biscocho,10.7817001,122.5370026
730,restaurant,Chowking,14.4533997,120.9759979
731,restaurant,Wooden Horse Steak House,14.4251003,121.0270004
732,restaurant,Damiana's Kitchen,14.5551004,121.0189972
733,restaurant,Bacolod Chicken Inasal,14.4253998,121.0400009
734,restaurant,Pancake House,14.5187998,121.0179977
735,restaurant,Savory,14.5187998,121.0179977
736,restaurant,Shakey's,14.5188999,121.0179977
737,restaurant,Mang Inasal,14.5234003,121.0009995
738,restaurant,Allies Peanuts,15.0255003,120.6869965
739,restaurant,Piknikan Restaurant,15.0376997,120.6740036
740,restaurant,Bistro Halaan,14.1941996,121.1650009
741,restaurant,(Pinky's) Pork Barrel Restaurant (Antipolo),14.6117001,121.1569977
742,restaurant,Tsoko.NUT Batirol,14.6097002,121.0790024
743,restaurant,Pancake House,14.6097002,121.0810013
744,restaurant,Uncle Cheffy,14.6097002,121.0810013
745,restaurant,Pizza Hut,14.6070004,121.0790024
746,restaurant,Biscocho,10.7826004,122.5370026
747,restaurant,Mang Inasal,14.5558996,121.0350037
748,restaurant,Whistlestop,14.5586996,121.0329971
749,restaurant,Mango Tree Restaurant,10.7200003,122.5350037
750,restaurant,Rekado Atbp.,14.5618000,121.0159988
751,restaurant,Shakey's Pizza,14.6309004,120.9970016
752,restaurant,Kenny Roger's,14.5192003,121.0179977
753,restaurant,Seafood Island,14.6204004,121.0550003
754,restaurant,Oyster Boy,14.6204996,121.0550003
755,restaurant,Hap Chan,14.6204004,121.0559998
756,restaurant,Max's Chicken,14.6194000,121.0559998
757,restaurant,Chowking,14.5558004,121.0339966
758,restaurant,Mendokoro Ramenba,14.4250002,121.0270004
759,restaurant,Kabagis,15.1669998,120.5839996
760,restaurant,Panciteria ni Edong,14.6230001,121.0989990
761,restaurant,David's Teahouse and Hot Pot,14.6197996,121.1029968
762,restaurant,Planet Pizza,14.6247997,121.1019974
763,restaurant,Bali Gulp Restaurant,14.6234999,121.1019974
764,restaurant,Masbate Eatery,14.1014004,121.1559982
765,restaurant,Shakey's,14.6569004,120.9879990
766,restaurant,Ninang's Pancit Canton,14.6624002,121.0439987
767,restaurant,Baliwag,14.6618004,121.0439987
768,restaurant,La Vigia,10.9883003,124.6210022
769,restaurant,Paps Diner,14.6507998,121.1070023
770,restaurant,Pizza Hut,14.6506004,121.1050034
771,restaurant,Bowler Restaurant,14.5586996,121.0230026
772,restaurant,Zen Japanese restaurant,15.1831999,120.5230026
773,restaurant,Korean town,15.1834002,120.5220032
774,restaurant,Korean Town,15.1829996,120.5220032
775,restaurant,Blue Bonnet Cafe,15.1808004,120.5199966
776,restaurant,Kaygulay's Cafe & Grill,14.5865002,121.1819992
777,restaurant,SteakTime,14.6342001,121.0390015
778,restaurant,Plaza Ibarra,14.6343002,121.0390015
779,restaurant,IRRI Cafeteria,14.1693001,121.2549973
780,restaurant,Pares,14.6789999,121.0179977
781,restaurant,Princess Bakery,14.5956001,121.1259995
782,restaurant,Club Intramuros,14.5930004,120.9700012
783,restaurant,Mario's Garden Grill and Restaurant,9.7913904,125.4940033
784,restaurant,Shakey's,14.5590000,121.0199966
785,restaurant,L & E Rest.,15.0143003,120.7050018
786,restaurant,Shakey's,14.2178001,121.1409988
787,restaurant,Buho Restaurant,14.1353998,120.9560013
788,restaurant,Tatta's Pizzeria,11.0075998,124.6080017
789,restaurant,Stranded Shipscook,10.4941998,123.7170029
790,restaurant,Wee Nam Kee,14.5564003,121.0240021
791,restaurant,BonChon Chicken,14.5565004,121.0240021
792,restaurant,Fatty Joe's,14.6064997,121.0790024
793,restaurant,Chooks-to-Go,14.0632000,121.2440033
794,restaurant,Classic Savory,14.5383997,120.9810028
795,restaurant,Food Catering Services,14.9969997,120.7040024
796,restaurant,Citang's Eatery,14.8393002,120.8349991
797,restaurant,Sheelana's Eatery,14.2999001,120.9570007
798,restaurant,Max's Restaurant,14.5936003,120.9739990
799,restaurant,Adams Canteen,14.5888996,120.9779968
800,restaurant,Casa Marinero II,14.5890999,120.9759979
801,restaurant,Casa Marinero,14.5892000,120.9759979
802,restaurant,Mang Inasal,14.3010998,120.9540024
803,restaurant,UIP Restaurant,14.5788002,120.9759979
804,restaurant,Blue Bay,14.5787001,120.9749985
805,restaurant,"Dad's, Kamayan, Saisaki",14.5777998,120.9820023
806,restaurant,Kashmir,14.5777998,120.9820023
807,restaurant,Barrio Fiesta,14.5790997,120.9789963
808,restaurant,Big Mama's,14.5777998,120.9800034
809,restaurant,North Park,14.5893002,121.0699997
810,restaurant,Tempura Japanese Grill,14.5804005,120.9810028
811,restaurant,Alex III Restaurant Grill,14.5803003,120.9810028
812,restaurant,Rico's Inn Restaurant,14.5803003,120.9800034
813,restaurant,Mr. Peter Lee's Hong Kong Tea House,14.5804005,120.9800034
814,restaurant,Max's,14.5804996,120.9820023
815,restaurant,Pancit ng Taga Malabon,14.5811005,120.9820023
816,restaurant,Elvinario's Resto Bar,14.5788002,120.9830017
817,restaurant,Cowboy Grill Express,14.5805998,120.9820023
818,restaurant,Shakey's,14.5804996,120.9820023
819,restaurant,Cafe France,14.5808001,120.9820023
820,restaurant,Arquiza Seafood and Hotpot Restaurant,14.5783997,120.9810028
821,restaurant,May Sum Restaurant,14.5797997,120.9789963
822,restaurant,Rufo's Famous Tapa,14.6327000,121.0439987
823,restaurant,Bacolod Chicken Inasal,14.5932999,120.9729996
824,restaurant,Patio de Conchita,14.5917997,120.9739990
825,restaurant,Jo's Chicken Inato By the Sea,9.3760996,123.2649994
826,restaurant,Gerrardo's,14.6329002,121.0429993
827,restaurant,Old Swiss Inn,14.5805998,120.9889984
828,restaurant,Shakeys,14.7061996,121.0729980
829,restaurant,Ethel And Ethan Canteen,14.2989998,120.9580002
830,restaurant,Evram Andrei Store,14.2988005,120.9570007
831,restaurant,Mang Teban Lechon Manok,14.2988997,120.9550018
832,restaurant,RVL Eatery,14.2990999,120.9550018
833,restaurant,Rose And Hans Eatery,14.2989998,120.9580002
834,restaurant,Nitz,14.6993999,121.0680008
835,restaurant,Thai Fusion,14.4618998,121.0090027
836,restaurant,Hap Chan,14.4476995,121.0289993
837,restaurant,Pancake House,14.4448004,121.0289993
838,restaurant,Caramia Gelateria,14.5562000,121.0240021
839,restaurant,Kanin Club,14.5563002,121.0240021
840,restaurant,Amici,14.5562000,121.0240021
841,restaurant,Poco Deli,14.5563002,121.0240021
842,restaurant,Omakase,14.5563002,121.0240021
843,restaurant,Banapple,14.5565004,121.0240021
844,restaurant,Simple Lang,14.5564003,121.0240021
845,restaurant,Pinkberry,14.5565996,121.0240021
846,restaurant,Bahia de Baler Bar and Restaurant,15.7613001,121.5680008
847,restaurant,Kainan Na!,15.8057003,121.1380005
848,restaurant,Kowloon House,14.6695004,121.0439987
849,restaurant,Sangkalan,14.6604004,121.0439987
850,restaurant,Matsarang Korean Restaurant,14.2989998,120.9589996
851,restaurant,Daneve Cafe Bar and Restaurant,14.2995005,120.9609985
852,restaurant,Jack's Loft,14.6363001,121.0360031
853,restaurant,Sky Garden,14.5565004,120.9800034
854,restaurant,Legend Seafood Restaurant,14.5530996,120.9860001
855,restaurant,Mangan Sutra,14.6576996,121.0459976
856,restaurant,Kozui Green Tea,14.6324997,121.0350037
857,restaurant,Pritong Manok SM City Davao,7.0500202,125.5879974
858,restaurant,San Matias Ihaw-ihaw,15.0102997,120.7089996
859,restaurant,Le Ching Tea House,14.6575003,121.0559998
860,restaurant,Mister Kabab,14.6577997,121.0559998
861,restaurant,Rufo's Famous Tapa,14.6573000,121.0559998
862,restaurant,Razon's,14.6574001,121.0559998
863,restaurant,Ral's,14.6571999,121.0559998
864,restaurant,Tokyo Tokyo,14.6573000,121.0559998
865,restaurant,Kanin Club,14.6576996,121.0559998
866,restaurant,Pizza Hut,14.6577997,121.0559998
867,restaurant,Bubble's Crispy Pata & Restaurant,13.9296999,121.6119995
868,restaurant,Whynot / Le Chalet,9.3074999,123.3099976
869,restaurant,Max's Restaurant,14.6099997,121.0810013
870,restaurant,King Ginno's Pares,14.5374002,120.9980011
871,restaurant,The Original Savory,14.6078997,121.0390015
872,restaurant,Heaven's Barbeque,14.5627003,121.0199966
873,restaurant,JT's Manukan,14.5627003,121.0189972
874,restaurant,Stoops,14.5627003,121.0189972
875,restaurant,Terry's Selection,14.5592003,121.0220032
876,restaurant,Alexa's Deli Cafe and Wine Bar,14.5614004,121.0240021
877,restaurant,Il Ponticello,14.5588999,121.0199966
878,restaurant,Tsumura Sushi Bar and Restaurant,14.5581999,121.0220032
879,restaurant,La Cuisine Francaise,14.5587997,121.0230026
880,restaurant,Pablo,14.5600004,121.0240021
881,restaurant,Bravo! Ristorante Italiano,14.5614004,121.0240021
882,restaurant,Malcolm's,14.5612001,121.0210037
883,restaurant,Italianni's,14.5521002,121.0199966
884,restaurant,Casblanca Restaurant,9.3084497,123.3099976
885,restaurant,Mamia's Bar and Restaurant,9.3077898,123.3099976
886,restaurant,Max Restaurant,18.1958008,120.5940018
887,restaurant,Jonas,14.6307001,120.9950027
888,restaurant,Globe Lumpia,14.6005001,120.9840012
889,restaurant,Cucina,15.0516005,120.7040024
890,restaurant,Trellis N' Vines,7.0767498,125.6060028
891,restaurant,La Bodeguita,7.0776100,125.6060028
892,restaurant,Sugarmunch,7.0811601,125.6029968
893,restaurant,MVP,11.1036997,122.6419983
894,restaurant,Lutong Pilipino ni Aling Ely,14.1936998,121.1650009
895,restaurant,Andok's,14.2728004,121.4550018
896,restaurant,Hana Japanese Restaurant,14.2699003,121.4449997
897,restaurant,Kanzhū Hand-pulled Noodle House,14.5984001,121.0380020
898,restaurant,Gabon,7.0980902,125.6149979
899,restaurant,Cafe Andressa,7.1114602,125.6139984
900,restaurant,Reyes Barbeque,14.5578003,121.0230026
901,restaurant,Max's,14.5586996,121.0240021
902,restaurant,Dell's Foodhall,14.5579004,121.0240021
903,restaurant,Pho Hoa,14.5579004,121.0230026
904,restaurant,Bacolod Chicken Inasal,14.5576000,121.0230026
905,restaurant,Galleon Food Gallery,14.5583000,121.0240021
906,restaurant,Good Mixes,14.5585003,121.0240021
907,restaurant,Lechon Manok ni Sr. Pedro,14.6553001,121.0189972
908,restaurant,Ersao,14.6183004,121.0100021
909,restaurant,Phở Hòa,14.6423998,121.0400009
910,restaurant,Shakey's,14.6424999,121.0390015
911,restaurant,Sansung Korean Restaurant,14.5651999,121.0309982
912,restaurant,Tres Hijos,11.1115999,122.6490021
913,restaurant,Tropical Hut,14.6498003,121.0500031
914,restaurant,Max's,14.6494999,121.0500031
915,restaurant,Serye,14.6494999,121.0500031
916,restaurant,Bacolod Chicken Inasal,14.6497002,121.0500031
917,restaurant,Dona Dona Korean Barbeque,14.5648003,121.0289993
918,restaurant,Mang Inasal,14.5567999,121.0080032
919,restaurant,Edelweiss Austrian Restaurant,9.3006802,123.2969971
920,restaurant,Fuh Garen Chinese Restaurant,9.3010502,123.2969971
921,restaurant,Top of the Citi,14.5590000,121.0250015
922,restaurant,Cravings Restaurant,14.5599003,121.0260010
923,restaurant,Project Pie,14.5599003,121.0260010
924,restaurant,Shinjuku Ramen House,14.5634003,121.0289993
925,restaurant,Angel's Pizza Pasta,14.5636997,121.0289993
926,restaurant,Mang Inasal,14.6421003,121.0270004
927,restaurant,Mann Hann,14.6063004,121.0179977
928,restaurant,Rustica,14.6343002,121.0270004
929,restaurant,Ineng's Special BBQ,14.6287003,121.0329971
930,restaurant,The Chocolate Kiss,14.6297998,121.0299988
931,restaurant,WG Diner,14.5653000,121.0299988
932,restaurant,Classic Savory,14.5635004,121.0289993
933,restaurant,Causeway Timog,14.6358004,121.0299988
934,restaurant,Yam Cha,14.6351995,121.0329971
935,restaurant,Danny's Grill,14.6351004,121.0329971
936,restaurant,Savory,14.6365995,121.0279999
937,restaurant,Le Ching,14.6367998,121.0279999
938,restaurant,Grub Resto Cafe,7.0687199,125.6060028
939,restaurant,Crepelato Gelato,7.0718598,125.6060028
940,restaurant,Wings & Dips Cafeteria,7.0760102,125.6070023
941,restaurant,Lolo Peds Restaurant,17.0415001,121.0999985
942,restaurant,Ramen Cool,14.6506004,121.0289993
943,restaurant,Pansiteria Lido,14.6505003,121.0289993
944,restaurant,Sammy's Food Lane & Beer Station,11.0059004,124.6070023
945,restaurant,Cafe Lidia,14.6216002,121.0950012
946,restaurant,Babalu's Bulalo,16.5414009,120.3259964
947,restaurant,Hidden Garden,17.5592003,120.3649979
948,restaurant,Cafe Leona,17.5734997,120.3889999
949,restaurant,Max's,17.5732994,120.3889999
950,restaurant,Club House,15.4514999,120.9619980
951,restaurant,Shakey's,14.5410004,121.0559998
952,restaurant,Max's Restaurant,14.5490999,121.0559998
953,restaurant,Cheng Eatery,11.1056995,122.6460037
954,restaurant,Best Friends,14.6279001,121.0650024
955,restaurant,Gloria Maris Shark's Fin Restaurant,14.5558996,120.9789963
956,restaurant,Panciteria Lido,14.4482002,120.9840012
957,restaurant,Hossein's Persian Kebab,14.5629997,121.0279999
958,restaurant,Chowking,14.5608997,121.0270004
959,restaurant,Bellore,14.6422005,121.0319977
960,restaurant,Pampanga's Kitchenette,14.6338997,121.0469971
961,restaurant,Ferino's Bibingka,14.5628004,121.0279999
962,restaurant,Amber's,14.5704002,121.0459976
963,restaurant,Panay Food Strip,14.6341000,121.0230026
964,restaurant,Mang Inasal,14.6396999,121.0169983
965,restaurant,Bacolod Chicken Inasal,14.5663996,121.0100021
966,restaurant,Ferino's Bibingka,14.6084003,121.0380020
967,restaurant,JT's Chicken Inasal,14.6084003,121.0380020
968,restaurant,World Class Persian Kebab,14.6241999,121.0329971
969,restaurant,Eldorado Beach Resort Restaurant,9.1922903,123.2720032
970,restaurant,La-ne's,6.9509401,126.2180023
971,restaurant,Balinsasayaw Grill,7.4419098,125.8050003
972,restaurant,Al Batra Restaurant,14.5639000,121.0289993
973,restaurant,Yoohoo,14.5625000,121.0289993
974,restaurant,Sam's Pizza,14.8302002,120.2809982
975,restaurant,Chicken Ati-atihan,9.3636904,122.8059998
976,restaurant,Kookoo's Nest Restaurant,9.0501604,123.1200027
977,restaurant,Quadro Queens Fast Food,6.9285998,125.3440018
978,restaurant,Sofia Eatery,6.7388401,125.3659973
979,restaurant,Ivy Jane Dampa Restaurant,7.0443501,125.5910034
980,restaurant,Jepoy's Grill,14.5794001,121.0520020
981,restaurant,Tiny Teapot,14.5714998,121.0530014
982,restaurant,Corrie's Pancit Malabon,14.5757999,121.0589981
983,restaurant,Cafe Juanita,14.5727997,121.0609970
984,restaurant,Uncle Moe's Shawarma,14.5730000,121.0599976
985,restaurant,Suzu Kin,14.5663996,121.0090027
986,restaurant,TJ Grille,14.5642996,121.0149994
987,restaurant,Fatless Shabu-Shabu,14.5295000,120.9889984
988,restaurant,Yasubei,14.5298004,120.9889984
989,restaurant,Max's Restaurant,14.3009996,120.9570007
990,restaurant,Yang Chow,14.4258003,120.9440002
991,restaurant,Steak Plus,14.5872002,121.0650024
992,restaurant,Brazil Brazil,14.5872002,121.0650024
993,restaurant,Marina Seafoods,14.5876999,121.0640030
994,restaurant,Dencio's,14.5868998,121.0640030
995,restaurant,Carlo's Pizza,14.5871000,121.0640030
996,restaurant,Behrouz,14.5869999,121.0640030
997,restaurant,Cara's Food Haven,7.3010502,125.6839981
998,restaurant,Mang Inasal,7.6021199,125.9629974
999,restaurant,Dahil Sa Iyo Fastfood,11.2398005,125.0049973
1000,restaurant,Shakey's,11.2449999,125.0019989
1001,restaurant,Giuseppe's Restaurant,11.2417002,125.0009995
1002,restaurant,Tok-Yu,14.6384001,121.0309982
1003,restaurant,Clare Restaurant,7.0665102,125.6090012
1004,restaurant,Chin Loong,9.3081903,123.3099976
1005,restaurant,DC Market Grill,15.1311998,120.5719986
1006,restaurant,La-bas,9.3208799,123.3119965
1007,restaurant,Café Antonio,9.3095398,123.3089981
1008,restaurant,Mama Maria Pizzaria,7.0840101,125.6119995
1009,restaurant,Mesa,14.6329002,121.0350037
1010,restaurant,Ugong Rock Grill & Seafood Bar,9.7396803,118.7470016
1011,restaurant,Shakey's Pizza,9.7399502,118.7419968
1012,restaurant,Thanh-Tam Vietnamese Orig Dish,9.7397900,118.7500000
1013,restaurant,Bruno's Swissfood Wines/Delicatessen Restaurant,9.7398500,118.7360001
1014,restaurant,Baker's Kitchen,9.8074903,118.7350006
1015,restaurant,Boyaks,7.0827999,125.6119995
1016,restaurant,Token Ginseng Chicken,14.5641003,121.0299988
1017,restaurant,Mulle Banga,14.5640001,121.0299988
1018,restaurant,Mamita's Deli,14.5723000,120.9830017
1019,restaurant,Angeles Fried Chicken House,15.1629000,120.5920029
1020,restaurant,Didi's Pizza,15.1608000,120.5920029
1021,restaurant,Ka Inato,9.7780704,118.7480011
1022,restaurant,Giacomino's,9.7393799,118.7409973
1023,restaurant,DJ Ann Rich Foodcourt (eatery),9.7574596,118.7480011
1024,restaurant,Pho' Saigon,9.7774801,118.7480011
1025,restaurant,Joe Kuan,14.3968000,120.9720001
1026,restaurant,Kumpadres,14.0634003,121.3270035
1027,restaurant,Som's,14.5634003,121.0329971
1028,restaurant,The Palm City Food Park,7.4461498,125.8069992
1029,restaurant,Chicken Ati-Atihan,7.4461298,125.8050003
1030,restaurant,Blue Waters Function Hall,7.0962801,125.6640015
1031,restaurant,Aler's The Home Kitchen,7.0799599,125.6090012
1032,restaurant,Turquoise Kebab Restaurant,7.0687799,125.6149979
1033,restaurant,Penong's,7.0891600,125.5059967
1034,restaurant,Honey Bear,7.0226698,125.5000000
1035,restaurant,Little Quiapo,14.6393995,121.0490036
1036,restaurant,Blue Carabao Diner,7.0757999,125.6250000
1037,restaurant,Calda Pizza,7.0679698,125.6060028
1038,restaurant,Prayer Mountain Restaurant,7.1328402,125.3830032
1039,restaurant,Tia Nina Pizza & Pasta,7.0228500,125.5009995
1040,restaurant,Taalianas,7.0836701,125.6179962
1041,restaurant,Garden By The Sea,7.1081200,125.6520004
1042,restaurant,Mandarin Tea Garden,7.1145201,125.6529999
1043,restaurant,Golden Pavilion Chinese Restaurant & Night Club,18.1564007,120.5230026
1044,restaurant,Saylo Restaurant,11.6954002,122.3740005
1045,restaurant,CDM Marios Bar & Restaurant,18.1564007,120.5319977
1046,restaurant,Ladislawa Country Club,7.0968900,125.6070023
1047,restaurant,Dimple's,7.0175600,125.4980011
1048,restaurant,Ram's Chicken & Grill,7.0518699,125.5899963
1049,restaurant,Green Heights Clubhouse,7.1044202,125.6060028
1050,restaurant,Loring's Restaurant,7.0613599,125.5899963
1051,restaurant,Batac Food Plaza,18.0550995,120.5650024
1052,restaurant,Suribas Ihaw - Ihaw,7.1230998,125.4800034
1053,restaurant,Ridge View & Cafe,7.0239100,125.4560013
1054,restaurant,Karlyn's Food Station,7.0495400,125.5830002
1055,restaurant,Dencio's Sa Hilltop,7.0931902,125.5690002
1056,restaurant,Chickies & Patties,7.0681300,125.6090012
1057,restaurant,Taklobo Restaurant,7.0664001,125.5820007
1058,restaurant,Sugbahan Sa Payag,7.1348600,125.4749985
1059,restaurant,Coco's South Bistro,7.0881100,125.6110001
1060,restaurant,Sen Ton Whan,7.0881300,125.6119995
1061,restaurant,Grand Emperor Seafood & Restaurant,7.0883999,125.6129990
1062,restaurant,Ahfat 3 Seafood Plaza,7.0881400,125.6129990
1063,restaurant,Emerald Seafood Garden,7.0874701,125.6129990
1064,restaurant,Ahfat 1 Seafood Plaza,7.0884700,125.6129990
1065,restaurant,Bankerohan Barbeque Plaza,7.0685601,125.6029968
1066,restaurant,KC Fishing Restaurant,7.0515099,125.5889969
1067,restaurant,Khash Persian Kebab & Resto Bar,7.0527501,125.5930023
1068,restaurant,Macy's Diner,18.1968002,120.5950012
1069,restaurant,Kuya Eds,7.0780301,125.6149979
1070,restaurant,Boyd's Pizza House,7.0817199,125.6129990
1071,restaurant,Tiny Kitchen,7.0810900,125.6100006
1072,restaurant,Pards Seafood Grill & Restaurant,7.0714302,125.6070023
1073,restaurant,Golden Peter Pan Bakeshop,7.0685201,125.6050034
1074,restaurant,Billy the Kid,7.0571599,125.5719986
1075,restaurant,Cool Change,15.0295000,120.6760025
1076,restaurant,Tatalaok Roasters,18.2040005,120.5989990
1077,restaurant,Chooks To Go,18.2042999,120.5989990
1078,restaurant,Asian Garden Grill & Restaurant,18.1996002,120.5960007
1079,restaurant,Glamour Crab Buffet,7.0693998,125.6129990
1080,restaurant,Tong - Yang Smokeless Grill & Shabu Shabu,7.0764699,125.6190033
1081,restaurant,Uptown Restaurant,7.1059499,125.6139984
1082,restaurant,Space Burger,7.0809598,125.6129990
1083,restaurant,Amber,14.4758997,121.0009995
1084,restaurant,Sinangag Express,14.4534998,120.9759979
1085,restaurant,Seoul Ga Korean Restaurant,7.0880599,125.6110001
1086,restaurant,Italian Job Pizzeria,7.0725799,125.6070023
1087,restaurant,Glamour Resto & Caterer,7.0724802,125.6070023
1088,restaurant,Crab Buffet,7.0725298,125.6070023
1089,restaurant,K1 Chinese Cuisine,7.0806799,125.6110001
1090,restaurant,Bak Bak Native Chicken Restaurant,7.0808101,125.6110001
1091,restaurant,Sentro Verde,7.0757999,125.6090012
1092,restaurant,Tai-Pan Palace,7.0667200,125.6070023
1093,restaurant,Rego's Pasta Express,7.0767102,125.6100006
1094,restaurant,Kuya Eds,7.0647402,125.6070023
1095,restaurant,Spirale,7.1033802,125.6340027
1096,restaurant,Dimsum Diner,7.1025000,125.6340027
1097,restaurant,Penong's,7.1011300,125.6309967
1098,restaurant,Lyndon's Worlds Worst Ribs & Awful Chicken,7.0678201,125.6159973
1099,restaurant,The Old Spaghetti House,14.5587997,121.0230026
1100,restaurant,Leandro's Specialties & Catering,7.0795298,125.6080017
1101,restaurant,Happy Home Cafe & Diner,7.0795102,125.6080017
1102,restaurant,JB's Hut Seafood & Grill,7.0828400,125.6119995
1103,restaurant,Toryano's Native Chicken House,7.0697198,125.6070023
1104,restaurant,Kokai,14.9378996,120.5999985
1105,restaurant,North Wind Restaurant & Videoke Bar,18.5375996,120.7659988
1106,restaurant,Miguel Luis (Pansiteria),18.5361996,120.7639999
1107,restaurant,2N1 Place (eatery),18.5307999,120.7939987
1108,restaurant,Azneb Grill & Restaurant,7.1353202,125.6900024
1109,restaurant,BergBlick Restaurant,18.5751991,120.8030014
1110,restaurant,Sarabo,18.5692997,120.7939987
1111,restaurant,Aling Inday Lugawan sa Banga,14.2139997,121.1669998
1112,restaurant,Mins Kitchenette,14.9750996,120.5270004
1113,restaurant,Bistro Rosario,7.0491199,125.5910034
1114,restaurant,Sunya Restaurant,7.0669198,125.6060028
1115,restaurant,Kusina Davao,7.0668502,125.6060028
1116,restaurant,Barbeque Boss,7.0711198,125.6080017
1117,restaurant,Pidoks Camus,7.0709901,125.6070023
1118,restaurant,Lampong's Restaurant,17.5727005,120.3889999
1119,restaurant,Bistro Amarillo,17.5720997,120.3899994
1120,restaurant,Dos Meal Restaurant,17.5716991,120.3880005
1121,restaurant,Palovince Place,7.0856700,125.6129990
1122,restaurant,Sarimakan Crab Buffet & restaurant,7.0673399,125.6119995
1123,restaurant,Shakey's,17.5893002,120.3889999
1124,restaurant,Kookel's,7.0610199,125.5569992
1125,restaurant,Karissa Josy Restaurant,17.5688000,120.3860016
1126,restaurant,Conching's Native Chicken,7.0765300,125.6060028
1127,restaurant,Ngoyong's Haus,7.0806499,125.6149979
1128,restaurant,Mang Del's Kambingan,7.0769000,125.6060028
1129,restaurant,D' Counter Executive Dormitory & Fastfood,7.0699902,125.6070023
1130,restaurant,Dimsum Diner,7.0704598,125.6050034
1131,restaurant,Davao Shanghai Restaurant,7.0736399,125.6139984
1132,restaurant,Chickies & Patties,7.0738101,125.6139984
1133,restaurant,Mae's Kitchen,7.0769401,125.6060028
1134,restaurant,Jackie's Resto Cafe,7.1102500,125.6480026
1135,restaurant,Marina Tuna,7.1134801,125.6520004
1136,restaurant,Gasing's Barbeque Grill,7.0675802,125.6029968
1137,restaurant,Cabawan sa Calinan,7.1903000,125.4560013
1138,restaurant,Daddy Lodge & Grill,7.1612501,125.4749985
1139,restaurant,Traveler's Grill,7.1842799,125.4609985
1140,restaurant,Chickies & Patties,7.0778699,125.6149979
1141,restaurant,Mary Jay Restaurant,14.6658001,120.9489975
1142,restaurant,Chowking,14.6578999,120.9509964
1143,restaurant,Roadhouse Cafe,7.9558501,125.1090012
1144,restaurant,Reyes Grill,8.1561003,125.1269989
1145,restaurant,ARL Resto & Jazz Bar,8.1555700,125.1269989
1146,restaurant,"Barrio Inasal, Ma. Clara",10.6992998,122.5599976
1147,restaurant,BC Chicken House,7.0530300,125.5950012
1148,restaurant,Space Burger,7.0969601,125.6190033
1149,restaurant,Mang Inasal,7.0990300,125.6240005
1150,restaurant,Mandarin Tea Garden,7.0855899,125.6119995
1151,restaurant,Davao Korea Town Restaurant,7.0882902,125.6129990
1152,restaurant,Ram's Lechon Manok,7.0414100,125.5270004
1153,restaurant,Betia's Eatery,7.0409598,125.5270004
1154,restaurant,Villa Josefina Clubhouse,7.0585299,125.5660019
1155,restaurant,Le'Kooks,7.0609798,125.5569992
1156,restaurant,Dagat Fiesta Resort,7.1096201,125.6529999
1157,restaurant,Vamos Amigos Grilles,7.0921602,125.6220016
1158,restaurant,Alop's Ihaw - Ihaw,7.1048002,125.6139984
1159,restaurant,Penong's Barbecue,7.0991702,125.6149979
1160,restaurant,Tita Annie's,7.0702300,125.6139984
1161,restaurant,Sym's Gourmet,7.0729098,125.6119995
1162,restaurant,Max's Restaurant,14.6708002,121.0390015
1163,restaurant,Savory,14.6705999,121.0390015
1164,restaurant,Kubyerto's,7.1173100,125.4789963
1165,restaurant,Ram's Lechon Manok & Restaurant,7.0477200,125.5950012
1166,restaurant,Lisa's Seafood Grill,7.0444698,125.5910034
1167,restaurant,Bogsers Restaurant,7.0445199,125.5920029
1168,restaurant,Zed Pizza,7.0685701,125.6080017
1169,restaurant,Mang Sario,7.0993700,125.6269989
1170,restaurant,Dusk Til Dawn,7.0563598,125.5999985
1171,restaurant,Azadi Persian Kebab,14.6490002,121.0279999
1172,restaurant,Pancit Malabon,14.6489000,121.0279999
1173,restaurant,Ersao,14.6489000,121.0279999
1174,restaurant,Leandro's Specialties,7.0795698,125.6019974
1175,restaurant,Mang Bok's Manok,14.6465998,121.0279999
1176,restaurant,Shakey's,10.6983995,122.5680008
1177,restaurant,Mang Inasal,10.6933002,122.5660019
1178,restaurant,Pizza Hut,10.6945000,122.5650024
1179,restaurant,Chippens,7.0701098,125.6139984
1180,restaurant,Fattmatts Ihaw-Ihaw,7.1931901,125.4530029
1181,restaurant,Mers Native Delicacies,6.7704000,125.3779984
1182,restaurant,Tsuro Japanese Restaurant & Sushi,7.0704598,125.6080017
1183,restaurant,Calda Pizza,7.0784202,125.6129990
1184,restaurant,Saluhan Lounge N Buffet,7.0722799,125.6070023
1185,restaurant,Dusk Til Dawn,7.0671301,125.6070023
1186,restaurant,Claude's Le cafe de Ville,7.0667601,125.6090012
1187,restaurant,Nathaniel's,14.4259996,121.0279999
1188,restaurant,Teriyaki Boy,14.4212999,121.0360031
1189,restaurant,Pancake House,14.4214001,121.0360031
1190,restaurant,North Park,14.4216995,121.0370026
1191,restaurant,Master Chef,14.6766005,120.5350037
1192,restaurant,Zugba Grill & Resto Bar,7.0423398,125.5830002
1193,restaurant,Itaewon Korean Restaurant,7.0624499,125.5960007
1194,restaurant,Mang Godo Kambingan,7.1425900,125.6529999
1195,restaurant,Nostalgia Restaurant,14.4266996,121.0410004
1196,restaurant,BBB Burger,14.4263000,121.0410004
1197,restaurant,Okazu Garden Resort & Restaurant,13.9411001,121.6019974
1198,restaurant,Tita's Bulalo Station,7.2739401,125.6689987
1199,restaurant,Lambat Grill & Restaurant,7.3109398,125.6849976
1200,restaurant,Empoy's Grill,7.3030000,125.6800003
1201,restaurant,Pad's Kamayan,7.2937899,125.6780014
1202,restaurant,Mandarin Tea Garden,7.2976599,125.6790009
1203,restaurant,JC Complex,7.0249500,125.0790024
1204,restaurant,Yellow Cab Pizza,15.0423002,120.6839981
1205,restaurant,South Pacific Community Clubhouse,7.0704398,125.5169983
1206,restaurant,Pritong Manok,7.0675101,125.6110001
1207,restaurant,Dencio's,7.4464798,125.8089981
1208,restaurant,Banambo Grill,7.4601598,125.8190002
1209,restaurant,Strawberries & Ice Cream,16.3990993,120.6129990
1210,restaurant,KA Japanese Food,16.3990993,120.6129990
1211,restaurant,Shakey's,16.3990993,120.6129990
1212,restaurant,Wrap N Roll,16.3992004,120.6129990
1213,restaurant,Hot Shots,16.3992004,120.6129990
1214,restaurant,Korean Palace,16.4085007,120.6110001
1215,restaurant,Cantinetta,16.4036007,120.6149979
1216,restaurant,Gardena Fresca Garden Pond & Grill,7.0635600,125.5889969
1217,restaurant,Las Terrazas Clubhouse,7.0869002,125.5739975
1218,restaurant,Malcolm's Deli,14.5454998,121.0449982
1219,restaurant,Toro,14.5488997,121.0459976
1220,restaurant,Dis Way ang Lutong Noypi,7.0599198,125.5370026
1221,restaurant,Delongtes,7.0478201,125.5910034
1222,restaurant,Lorenzo Hall,16.3607006,120.6210022
1223,restaurant,JM Tsuki Japanese Restaurant,13.9385004,121.5999985
1224,restaurant,Pizza Hut,14.6377001,121.0260010
1225,restaurant,Slice & Dice Steakhouse,14.6414003,121.0270004
1226,restaurant,Adrinel's Restaurant,17.6158009,121.7300034
1227,restaurant,Mang Inasal,7.0229001,125.5009995
1228,restaurant,Andok's Manok,14.4500999,120.9240036
1229,restaurant,Genesis,14.8817997,120.5169983
1230,restaurant,Chowking / Red Ribbon,14.4622002,120.9629974
1231,restaurant,Cowboy Grill,14.4322996,121.0139999
1232,restaurant,Bugsy's Bar & Bistro,14.4216003,121.0339966
1233,restaurant,Dencio's Kamayan,7.0878201,125.5719986
1234,restaurant,Causeway,14.6709995,121.0380020
1235,restaurant,Fema's,14.3650999,121.4840012
1236,restaurant,Albino's Goto,14.3649998,121.4840012
1237,restaurant,Mang Inasal,14.5309000,120.9940033
1238,restaurant,Chowking,14.5323000,120.9940033
1239,restaurant,Annette's Lechon Hus,7.4487100,125.8109970
1240,restaurant,Arman's Eatery,7.4400201,125.8030014
1241,restaurant,Luisa and Daughter Restaurant and Catering Services,13.9428997,121.6139984
1242,restaurant,Sugar Bites,14.4846001,120.9940033
1243,restaurant,Hap Chan,14.5499001,121.0550003
1244,restaurant,Denny's,14.6098003,121.0800018
1245,restaurant,Restaurant,7.0061102,125.7269974
1246,restaurant,Domo,14.5730000,120.9860001
1247,restaurant,Emin and Mila's Canteen,14.2732000,121.4540024
1248,restaurant,Palms of Boracay,11.9738998,121.9169998
1249,restaurant,Let's Chow!,14.4563999,120.9940033
1250,restaurant,Suzhou Dimsum,14.4748001,121.0009995
1251,restaurant,Tapa King,14.5740995,121.0479965
1252,restaurant,Italianni's,14.6015997,121.0510025
1253,restaurant,Pasto,14.6026001,121.0510025
1254,restaurant,Sbarro,14.6009998,121.0500031
1255,restaurant,Brothers Burger,14.6011000,121.0490036
1256,restaurant,Seoul Barbecue,14.6078997,121.0780029
1257,restaurant,Savannah Moon,14.6071997,121.0780029
1258,restaurant,California Pizza Kitchen,14.6035004,121.0510025
1259,restaurant,Banana Leaf,14.6033001,121.0510025
1260,restaurant,Papa John's,14.6034002,121.0500031
1261,restaurant,Omakase,14.6005001,121.0500031
1262,restaurant,Cibo,14.6033001,121.0510025
1263,restaurant,Classic Savory,14.6027002,121.0510025
1264,restaurant,Arya,14.6035004,121.0510025
1265,restaurant,Kyochon,14.6028996,121.0510025
1266,restaurant,Säntis Delicatessen,14.5472002,121.0350037
1267,restaurant,Le Coeur de France,14.5473003,121.0350037
1268,restaurant,Padi's Point,14.5377998,121.0000000
1269,restaurant,Comida China de Manila,14.5832996,121.0780029
1270,restaurant,Mom & Tina's,14.5833998,121.0780029
1271,restaurant,Pico's Restaurant,14.2733002,121.4489975
1272,restaurant,Zubuchon,14.4259996,121.0270004
1273,restaurant,Mama Lou's,14.4476995,121.0100021
1274,restaurant,The Platters Restaurant,14.9833002,120.6210022
1275,restaurant,Lydia's Lechon,14.5810003,121.0759964
1276,restaurant,Gabbies Garden Restaurant,7.0809102,125.6139984
1277,restaurant,Beary Chicken,7.0781298,125.6149979
1278,restaurant,Olli's Resto,7.0774798,125.6149979
1279,restaurant,Fahrenheit Resto Bar,7.0765901,125.6149979
1280,restaurant,For the Good Times,7.0769401,125.6179962
1281,restaurant,Naty's Delicious Lechon,7.0748701,125.6179962
1282,restaurant,3M's Kainan,7.0711002,125.6149979
1283,restaurant,D'Breakfast Club,7.0708199,125.6169968
1284,restaurant,Tadakawa,7.0763202,125.6110001
1285,restaurant,Tadakawa,7.0763602,125.6110001
1286,restaurant,Pixies,7.0764399,125.6110001
1287,restaurant,Lydia's Lechon,14.5292997,120.9940033
1288,restaurant,Shakey's,14.4573002,121.0350037
1289,restaurant,Jade Palace,14.5709000,121.0650024
1290,restaurant,Nanbantei Yakitori Bar,14.6089001,121.0810013
1291,restaurant,Grafitti,14.6094999,121.0810013
1292,restaurant,House of Wagyu Stone Grill,14.6107998,121.0790024
1293,restaurant,Lido,14.4660997,121.0159988
1294,restaurant,Sinangag Express,14.4528999,121.0299988
1295,restaurant,Army Navy,14.4453001,121.0289993
1296,restaurant,Brooklyn Pizza,14.4502001,121.0299988
1297,restaurant,Cafe France,14.4452000,121.0279999
1298,restaurant,Hanakazu,14.4469995,121.0199966
1299,restaurant,Little Quiapo,14.4450998,121.0260010
1300,restaurant,Le Ching Tea House,14.6382999,121.0009995
1301,restaurant,Causeway Seafood Restaurant,14.6381998,121.0009995
1302,restaurant,Causeway Restaurant,14.6026001,121.0790024
1303,restaurant,Coral Garden,14.6091003,121.0770035
1304,restaurant,Uncle Moe's Shawarma Hub,14.5846004,121.0680008
1305,restaurant,Frankie's New York Buffalo Wings,14.5846004,121.0680008
1306,restaurant,Tapa King,14.5783005,121.0329971
1307,restaurant,RJ Bulalohan,14.5762997,121.0350037
1308,restaurant,Padi's Point,14.4537001,120.9759979
1309,restaurant,Hill station,16.4095001,120.5999985
1310,restaurant,Travellers Resto,14.2669001,121.4250031
1311,restaurant,Columbia Restaurant,14.2833004,121.4140015
1312,restaurant,Villa De Mercedes Clubhouse,7.0063400,125.4649963
1313,restaurant,Montemar,14.5880003,120.3939972
1314,restaurant,Little Kate's Kitchen,7.0622501,125.5960007
1315,restaurant,Ramos Eatery,15.0567999,120.6589966
1316,restaurant,Hungry Neighbors,15.1246996,120.5979996
1317,restaurant,Bale Kapangpangan Restaurant,15.0416002,120.6770020
1318,restaurant,Lanie-Denice Eatery,14.2732000,121.4560013
1319,restaurant,Mann Hann,14.5527000,121.0240021
1320,restaurant,Outback Steakhouse,14.5506001,121.0270004
1321,restaurant,Max's Restaurant,14.5521002,121.0250015
1322,restaurant,Ä Veneto,14.5521002,121.0250015
1323,restaurant,Buddy's,14.5527000,121.0240021
1324,restaurant,New Bombay,14.5521002,121.0250015
1325,restaurant,Tapa King,14.5528002,121.0240021
1326,restaurant,Modern China,14.5507002,121.0270004
1327,restaurant,Food Station,14.6529999,121.0179977
1328,restaurant,Shakey's,14.3858004,120.9769974
1329,restaurant,Sr. Pedro,14.0400000,120.6520004
1330,restaurant,Canteen,14.8424997,120.2870026
1331,restaurant,Pares Mami House,14.6273003,120.9929962
1332,restaurant,Karamba and Grill,14.6358004,121.0380020
1333,restaurant,Gully's Island Bar and Restaurant,14.6385002,121.0370026
1334,restaurant,Wimpy's,14.8413000,120.2870026
1335,restaurant,Meidolls Cafe,14.5836000,121.1240005
1336,restaurant,Yellow Cab,14.5587997,121.0059967
1337,restaurant,Teriyaki Boy,14.5588999,121.0059967
1338,restaurant,Luk Yuen,14.5587997,121.0059967
1339,restaurant,Pancake House,14.5588999,121.0059967
1340,restaurant,Savory,14.5590000,121.0059967
1341,restaurant,Friss Point,14.5598001,121.0199966
1342,restaurant,New Bombay,14.5611000,121.0250015
1343,restaurant,Mang Inasal,7.0906501,125.6100006
1344,restaurant,Dimsum Diner,7.0905600,125.6100006
1345,restaurant,Italianni's Restaurant,7.0920401,125.6119995
1346,restaurant,TGI Friday's,7.0918798,125.6119995
1347,restaurant,Hap Chan,14.5726995,120.9850006
1348,restaurant,Cowboy Grill,14.6365995,121.0260010
1349,restaurant,Red Rich,14.6415005,121.0270004
1350,restaurant,Panciteria Lido,14.6206999,121.0199966
1351,restaurant,Chowking,7.0983300,125.6190033
1352,restaurant,Greenjoy,14.7495003,120.9660034
1353,restaurant,Vicenticos,15.4909000,120.9680023
1354,restaurant,Chicken Inato,14.6295004,121.0339966
1355,restaurant,Peppers and Peppers,7.0782599,125.6090012
1356,restaurant,Don Galo's Best Tapsilog,14.3276997,120.9359970
1357,restaurant,Baliwag Lechon Manok,14.3273001,120.9400024
1358,restaurant,Baliwag Lechon Manok,14.3257999,120.9359970
1359,restaurant,Andoks,14.3250999,120.9369965
1360,restaurant,Chooks To Go,14.3254004,120.9369965
1361,restaurant,Pancit ng Taga Malabon,14.3248997,120.9369965
1362,restaurant,Countryside steak house,14.3197002,120.9400024
1363,restaurant,Sr. Pedro,14.3247995,120.9369965
1364,restaurant,Pancake House,14.6707001,121.0390015
1365,restaurant,Shakey's,14.2479000,121.0630035
1366,restaurant,Gloria Maris,14.5860996,121.0589981
1367,restaurant,Butamaru,14.4217997,121.0339966
1368,restaurant,Säntis Delicatessen,14.4251003,121.0270004
1369,restaurant,Pino Restaurant,14.6429996,121.0589981
1370,restaurant,Atoy's Pork Chop,14.4436998,120.9929962
1371,restaurant,Mister Siomai,14.4443998,120.9929962
1372,restaurant,Bubusok,15.0431004,120.6849976
1373,restaurant,High school Canteen 1,15.0369997,120.6959991
1374,restaurant,High school Canteen 2,15.0361996,120.6959991
1375,restaurant,Grade School Canteen,15.0377998,120.6979980
1376,restaurant,Esteban Canteen,15.0362997,120.6979980
1377,restaurant,Veraville Restaurant,15.4911003,120.9680023
1378,restaurant,Abe's,14.5495005,121.0540009
1379,restaurant,Zao,14.5499001,121.0540009
1380,restaurant,Cafe Mary Grace,14.5494003,121.0540009
1381,restaurant,Wee Nam Kee,14.5493002,121.0540009
1382,restaurant,Mogu,14.5499001,121.0540009
1383,restaurant,Cuba Libre,14.5496998,121.0530014
1384,restaurant,Carenderias,8.9867802,125.3410034
1385,restaurant,Titanic,14.1464996,121.4710007
1386,restaurant,Calle Arco,14.2730999,121.4530029
1387,restaurant,Figaro Coffee,14.6981001,121.0660019
1388,restaurant,El Rande Eatery,15.0324001,120.6880035
1389,restaurant,Boy Ching Woo,14.6700001,120.9479980
1390,restaurant,Joey Pepperoni,14.4491997,120.9800034
1391,restaurant,Reyes Barbecue,14.4492998,120.9810028
1392,restaurant,Steak House,14.4491997,120.9800034
1393,restaurant,Chooks-to-Go,14.1464005,121.3140030
1394,restaurant,Andok's Manok,14.6578999,121.0210037
1395,restaurant,KVI Restaurant,14.6578999,121.0189972
1396,restaurant,Mang Bok's Manok,14.6577997,121.0220032
1397,restaurant,Nom Nom Nom,14.6243000,121.0329971
1398,restaurant,Sabroso's Lechon,14.6241999,121.0329971
1399,restaurant,Mang Inasal,14.5580997,121.0169983
1400,restaurant,Tapa King,14.5555000,121.0210037
1401,restaurant,Max's Restaurant,14.4334002,121.0120010
1402,restaurant,Pizza Hut,14.4336004,121.0110016
1403,restaurant,Shakey's,14.4333000,121.0120010
1404,restaurant,Aling Lucy's Panciteria,14.4519997,120.9779968
1405,restaurant,Recuerdo Function Hall,8.6153803,123.7109985
1406,restaurant,Jessica Roadhouse,8.5936604,123.6800003
1407,restaurant,ARL,7.9102402,125.0950012
1408,restaurant,Sito's,7.3081698,125.6839981
1409,restaurant,R3J Travellers Dine,7.2977901,125.6790009
1410,restaurant,Tagum Diners,7.3007598,125.6800003
1411,restaurant,Iggy's Grille,14.5530005,121.0719986
1412,restaurant,Chicken Ati - Atihan,8.4885798,123.8040009
1413,restaurant,Pizza Hut,15.4598999,120.9499969
1414,restaurant,Shakey's Restaurant,10.6784000,122.9540024
1415,restaurant,Mackie's Fried House,8.2411299,124.2470016
1416,restaurant,Chowking,8.2307100,124.2409973
1417,restaurant,Tatay's Seafood House,8.2491703,124.2610016
1418,restaurant,Hoyohoy,8.3182297,124.2490005
1419,restaurant,Bahay Sisigan ni Apung Piping,14.1691999,121.2450027
1420,restaurant,Seablings Restaurant,8.5206003,124.5759964
1421,restaurant,Tanies Native Chicken,9.8203897,124.1930008
1422,restaurant,Bacolod Chicken Inasal,14.5375996,120.9820023
1423,restaurant,TGI Friday's,14.5362997,120.9800034
1424,restaurant,Tempura,14.5362997,120.9810028
1425,restaurant,Bonchon Chicken,14.5376997,120.9820023
1426,restaurant,Rack's,14.5341997,120.9800034
1427,restaurant,Razon's of Guagua,14.5376997,120.9789963
1428,restaurant,Greenland Restaurant,15.4980001,120.9840012
1429,restaurant,Joey's,15.4891005,120.9649963
1430,restaurant,Plaza Leticia,15.4841003,120.9670029
1431,restaurant,Fritzel's Place,8.6291103,123.4049988
1432,restaurant,Valdia Gardens Cuisine,8.6152201,123.3479996
1433,restaurant,Nonoy's Food & Entertainment,8.6300297,123.4069977
1434,restaurant,Jo's Chicken Inato,8.5846004,123.3470001
1435,restaurant,Sunburst,8.5849705,123.3460007
1436,restaurant,St. Elly's grill,8.5797501,123.3529968
1437,restaurant,Tai Restaurant,8.6961603,123.3929977
1438,restaurant,Veranda Restaurant,8.6967602,123.3929977
1439,restaurant,Senior Santiago  Steakhouse,8.6474600,123.4179993
1440,restaurant,Tapas & Beer,8.6479197,123.4179993
1441,restaurant,Fresh Harvest Seafood & Restaurant,8.6478701,123.4179993
1442,restaurant,Tura - Tura Grills,8.6479197,123.4179993
1443,restaurant,Julia's Batchoy,8.6477900,123.4179993
1444,restaurant,Lagkaw Restaurant,7.9994302,125.1320038
1445,restaurant,Pelot's Food Station,8.0954199,125.1309967
1446,restaurant,Halfway House,8.3744297,124.8909988
1447,restaurant,The Obrero Place,8.3835697,124.8440018
1448,restaurant,Alab By Chef Tatung,14.6339998,121.0360031
1449,restaurant,Mona Lisa Ristorante,14.4198999,121.0350037
1450,restaurant,Chowking,8.4845104,124.6559982
1451,restaurant,Pablo's,15.4857998,120.9599991
1452,restaurant,Armando's Grill,15.4834003,120.9550018
1453,restaurant,Rustica's Resto,15.4820004,120.9619980
1454,restaurant,Corban's Grill,15.4750004,120.9479980
1455,restaurant,Rosewood Park & Grill,8.4277802,124.2900009
1456,restaurant,Chowking,8.2389402,124.2440033
1457,restaurant,Tuba - Tuba Seafood Grill,8.6456003,123.4150009
1458,restaurant,Erlinda Food Haus,8.6459198,123.4160004
1459,restaurant,Rhecko's Pizza,8.6399403,123.4120026
1460,restaurant,Champêtre,14.5499001,121.0449982
1461,restaurant,The Bowery,14.5523996,121.0449982
1462,restaurant,Bistro Filipino,14.5509996,121.0459976
1463,restaurant,Cafe Via Mare,14.5552998,121.0479965
1464,restaurant,Eat Well!,14.5530005,121.0469971
1465,restaurant,Pancake House,14.5530996,121.0469971
1466,restaurant,Maigo Foodhouse & Kambingan,8.1562300,123.9550018
1467,restaurant,Robert's Eatery & Traveller's Inn,8.5584402,123.6360016
1468,restaurant,Talisay Food House,6.8693800,125.4420013
1469,restaurant,Mama Asay,14.5769997,121.0329971
1470,restaurant,Coy's Cafe and Bar,6.1129398,125.1750031
1471,restaurant,CM,14.8713999,120.8619995
1472,restaurant,JRenz Batil Patung,17.6273994,121.7259979
1473,restaurant,Cging Ching Restaurant,18.3441010,121.6449966
1474,restaurant,Criselda's,18.3549995,121.6399994
1475,restaurant,Engie's Canteen,16.4822998,121.1510010
1476,restaurant,Manny's Balbakwa,6.5026698,124.8430023
1477,restaurant,Kitok's Lechon Manok,7.1602001,124.2220001
1478,restaurant,Co Jordan Talaba / Bangus,10.3668003,123.9759979
1479,restaurant,Hokkaido Ramen Santouka,14.5504999,121.0270004
1480,restaurant,Oro Food House,14.2872000,121.4120026
1481,restaurant,Savanah Grill,15.4568005,120.9420013
1482,restaurant,8 Cuts Burger Blends,14.6101999,121.0800018
1483,restaurant,Chelsea Kitchen,14.6104002,121.0800018
1484,restaurant,Sandaime,14.6105003,121.0800018
1485,restaurant,The Red Crab - Alimango House,14.6099005,121.0800018
1486,restaurant,Pampini Halo-halo Restaurant,14.4296999,120.8949966
1487,restaurant,Max's Restaurant,15.4436998,120.9430008
1488,restaurant,Oyster Boy,14.6000004,121.0500031
1489,restaurant,Bacolod Chicken Inasal,14.6000996,121.0500031
1490,restaurant,Shakey's,14.6006002,121.0500031
1491,restaurant,Rack's,14.5377998,121.0179977
1492,restaurant,Matawe Seafoogs,15.5195999,120.9459991
1493,restaurant,Shakey's,14.5881004,121.0439987
1494,restaurant,Phoa,14.6021004,121.0490036
1495,restaurant,Dulcinea,14.6006002,121.0500031
1496,restaurant,Persian Kabab,14.6077995,121.0390015
1497,restaurant,Tabing Dagat Resto,6.8638802,125.4369965
1498,restaurant,Boracay Seafood,6.8593702,125.4339981
1499,restaurant,Pizza Hut,14.6925001,120.9710007
1500,restaurant,55 Events Place,14.6343002,121.0350037
1501,restaurant,Papa Ching Restaurant,7.0738301,125.6070023
1502,restaurant,Okiniiri No,14.4533005,120.9960022
1503,restaurant,Nestle and Flora's,14.4438000,121.0120010
1504,restaurant,Ayu,14.4525003,120.9970016
1505,restaurant,Jet's Liempo,14.4504995,121.0049973
1506,restaurant,Chic-Boy,14.2839003,120.9970016
1507,restaurant,Sagay Ilonggo Restaurant,7.0541601,125.5999985
1508,restaurant,Brothers Burger,14.5464001,120.9869995
1509,restaurant,Mang Inasal,14.2839003,120.9970016
1510,restaurant,Pares and Mami House,14.6357002,121.0179977
1511,restaurant,Partners Pares,14.6338997,121.0179977
1512,restaurant,Lugawan,14.8106003,121.0599976
1513,restaurant,Bacolod Chk-n-BBQ House,14.4572001,121.0360031
1514,restaurant,Bastille Bistro,14.4572001,121.0360031
1515,restaurant,Behrouz,14.4568996,121.0360031
1516,restaurant,Hungry Juan,14.6416998,121.0230026
1517,restaurant,Tapsihan sa Palatiw,14.5775995,121.0830002
1518,restaurant,Minia's Eatery,14.8393002,120.7529984
1519,restaurant,Dolly House of SeaFoods,6.8693199,125.4420013
1520,restaurant,Habra Covina Ihaw-Ihaw & Resto bar,6.8268900,125.3939972
1521,restaurant,Kuya Mark Food House,6.5885301,125.3509979
1522,restaurant,Bracero Eatery,6.5437198,125.3690033
1523,restaurant,Tanoks,6.1251302,125.1940002
1524,restaurant,Little Kitchen Restaurant,6.1148000,125.1760025
1525,restaurant,Pahayahay Resto Bar,6.1199298,125.1880035
1526,restaurant,Kurdapoys Seafood & Lechon Manok,6.1091700,125.1699982
1527,restaurant,Aiana Little Bits Restaurant,6.1074300,125.1890030
1528,restaurant,Asian Tongue,6.1143298,125.1729965
1529,restaurant,Shakey's Pizza,14.4046001,120.9400024
1530,restaurant,Lela's Kambingan,7.2984800,125.7080002
1531,restaurant,Steps sa Perps,14.4480000,120.9860001
1532,restaurant,Camphut Restobar,14.5600004,121.0569992
1533,restaurant,Tower Club,14.5573997,121.0220032
1534,restaurant,Pancake House,14.4502001,120.9789963
1535,restaurant,Zabs Buffet Restaurant,7.0701499,125.6129990
1536,restaurant,Sogbu Restobar,14.6121998,121.0599976
1537,restaurant,Cruisin' Restobar,14.6317997,121.0500031
1538,restaurant,Mary Grace,14.5900002,121.0680008
1539,restaurant,Army Navy,14.5900002,121.0680008
1540,restaurant,Kimono Ken,14.5899000,121.0680008
1541,restaurant,Palacio de Maynila,14.5706997,120.9830017
1542,restaurant,Blue Side Bamboo Grill,6.9917302,125.0820007
1543,restaurant,Calda Pizza,6.9960599,125.0820007
1544,restaurant,Penong's,7.0226898,125.0879974
1545,restaurant,Reyes Barbeque,14.2400999,121.0589981
1546,restaurant,Yellow Cab,14.2409000,121.0589981
1547,restaurant,Italianni's,14.2405996,121.0579987
1548,restaurant,Clawdaddy,14.2411003,121.0579987
1549,restaurant,Nature Trails Cafe,14.2404003,121.0579987
1550,restaurant,Brothers Burger,14.2410002,121.0579987
1551,restaurant,Uncle Cheffy,14.2412004,121.0579987
1552,restaurant,David's Tea House,14.2412004,121.0579987
1553,restaurant,Domo Tomo,14.2407999,121.0589981
1554,restaurant,John Bamboo,14.2410002,121.0579987
1555,restaurant,Tonkatsu,14.2411003,121.0579987
1556,restaurant,Conti's,14.2405005,121.0579987
1557,restaurant,Crisostomo,14.2409000,121.0579987
1558,restaurant,Hill Park & Restaurant,7.2037802,124.5410004
1559,restaurant,Kusina Midsayap,7.2009501,124.5439987
1560,restaurant,Razon's Halo halo,7.2230201,124.2480011
1561,restaurant,El Manuel Convention Center,7.2218599,124.2480011
1562,restaurant,Pacific Heights,7.2160001,124.2399979
1563,restaurant,Sardonyx Plaza & Pension House,7.2013402,124.2399979
1564,restaurant,Avenue Grill,7.2047901,124.2409973
1565,restaurant,Las Hermanas,7.2018399,124.2389984
1566,restaurant,Manong's Fruity Food,7.2020402,124.2389984
1567,restaurant,Coland System Technology Institute Ext.,7.2160802,124.2450027
1568,restaurant,Cotabato Oriental Restaurant,7.2244201,124.2460022
1569,restaurant,Mami King,7.2246099,124.2460022
1570,restaurant,Mardoney's,7.2246499,124.2460022
1571,restaurant,Circuit Resto,7.2115698,124.2419968
1572,restaurant,Fiesta Cotabato Native Restaurant,7.2116299,124.2419968
1573,restaurant,Ping's Muslim Restaurant,7.2101102,124.2480011
1574,restaurant,Mang Gorio,7.2237000,124.2480011
1575,restaurant,Smiley's,7.2220201,124.2470016
1576,restaurant,Biton Garden & Convention Center,7.2169499,124.2440033
1577,restaurant,Mang Inasal,7.2231398,124.2480011
1578,restaurant,Pritong Manok,7.2229900,124.2480011
1579,restaurant,Makilala White House Restaurant,6.9544902,125.0940018
1580,restaurant,Uncle Art Coldcuts,6.9991298,125.0839996
1581,restaurant,Solstice Restaurant,10.4216995,122.9229965
1582,restaurant,Rancho Lorenzo,14.4418001,120.9909973
1583,restaurant,Ondoy's Gotohan,14.0704002,121.3030014
1584,restaurant,Aling Nene,14.5658998,121.0029984
1585,restaurant,Emman's Stop Over,7.8369498,126.0609970
1586,restaurant,Klik SIlog,14.1684999,121.2440033
1587,restaurant,Cel's Fastfood,14.1682997,121.2450027
1588,restaurant,Mang Toto Chicken Inasal,14.1669998,121.2440033
1589,restaurant,Banana Berry,7.0790401,125.6080017
1590,restaurant,Grill Queen,14.6476002,121.0589981
1591,restaurant,Cinnabon,14.3928003,121.0380020
1592,restaurant,Cafe France,14.3936996,121.0380020
1593,restaurant,Racks,14.7344999,121.0569992
1594,restaurant,Abyss Hide Garden,7.0811100,125.6149979
1595,restaurant,SM Foodcourt,14.4453001,120.9509964
1596,restaurant,Aling Tessie's Lugawan,14.5452995,121.0660019
1597,restaurant,BonChon,14.5896997,121.0680008
1598,restaurant,Mongkok,14.5899000,121.0680008
1599,restaurant,Hobbies Barbeque,14.5897999,121.0680008
1600,restaurant,Daja Cafeteria,14.5900002,121.0680008
1601,restaurant,Shakey's,15.4597998,120.9499969
1602,restaurant,Sen Lek Thai Food,14.4875002,121.0240021
1603,restaurant,Pizza Hut,14.4836998,121.0339966
1604,restaurant,La Grotta Cucina Italiana,14.5565996,121.0179977
1605,restaurant,Secret Fresh,14.6071997,121.0400009
1606,restaurant,Mao Jia Hunan Cuisine,14.6071997,121.0400009
1607,restaurant,Charlie's Grind and Grill,14.6070995,121.0400009
1608,restaurant,Chic-Boy,14.6028004,121.0459976
1609,restaurant,Maria's Batchoy,9.7637701,123.5329971
1610,restaurant,Yang Chow,14.5228004,121.0000000
1611,restaurant,Pares Mami Food House,14.6316996,120.9990005
1612,restaurant,Country Chicken,14.6316004,120.9990005
1613,restaurant,Andoks Manok,14.6805000,120.9789963
1614,restaurant,Henry's Lugawan,14.6757002,120.9860001
1615,restaurant,Pancit na Taga Malabon,14.4256001,120.9390030
1616,restaurant,Green Pastures Fastfood & Bakeshop,7.9454799,125.1039963
1617,restaurant,KaiBob's Burgers,9.6275396,123.8949966
1618,restaurant,Shakey's,14.4450998,120.9509964
1619,restaurant,Army Navy Burger,14.5349998,121.0490036
1620,restaurant,Yellow Cab,14.5348997,121.0490036
1621,restaurant,Calle 5,14.5769997,120.9820023
1622,restaurant,Andok's,14.5330000,120.9940033
1623,restaurant,Behrouz Persian Cuisine,14.6351995,121.0309982
1624,restaurant,"Inang's Pansit Malabon, Nanay's Pansit Malabon",14.3336000,121.0810013
1625,restaurant,Manfuku Tei,14.4455004,120.9840012
1626,restaurant,RSM Lutong Bahay,14.2831001,120.9990005
1627,restaurant,Jerny's Siomai,14.1780996,121.2429962
1628,restaurant,Nanay's Bamboo Grill,14.1772003,121.3209991
1629,restaurant,Dishes & Mugs,14.6290998,121.0339966
1630,restaurant,Cravings,14.6287003,121.0339966
1631,restaurant,House of Wagyu,14.6018000,121.0469971
1632,restaurant,Rehub,14.6385002,121.0390015
1633,restaurant,Pepeton's,14.6378002,121.0319977
1634,restaurant,Ihaw Balot Plaza,14.6380997,121.0309982
1635,restaurant,Yakimix,14.6330996,121.0350037
1636,restaurant,Wanam,14.6786003,120.5410004
1637,restaurant,Nonki,10.3246002,123.9769974
1638,restaurant,La Tegola,10.3254995,123.9769974
1639,restaurant,Fortune Restaurant,14.6764002,120.5319977
1640,restaurant,Napoli Pizzeria,14.6349001,121.0360031
1641,restaurant,Kimono Ken,14.6323004,121.0350037
1642,restaurant,Mario's Restaurant,14.6317997,121.0350037
1643,restaurant,Snackaroo Specialty Foods,14.6450996,121.0520020
1644,restaurant,Kowloon House,14.6445999,121.0510025
1645,restaurant,Alex III,14.6451998,121.0520020
1646,restaurant,Brielle's Chicken Palace,6.6354499,124.5970001
1647,restaurant,Myrna's Bulalo Haus,14.6269999,121.0339966
1648,restaurant,OZ Wings,14.5576000,121.0019989
1649,restaurant,Robina House,14.5562000,121.0059967
1650,restaurant,Panchita's,14.5517998,121.0120010
1651,restaurant,Italianni's,14.5344000,120.9800034
1652,restaurant,Hap Chan,14.2552996,121.3919983
1653,restaurant,Max's Restaurant,14.2554998,121.3929977
1654,restaurant,Butsoy Canteen,15.4847002,120.9749985
1655,restaurant,Penong's Barbeque,7.0687399,125.6100006
1656,restaurant,Sans Rival,9.3080397,123.3089981
1657,restaurant,Jo's Chicken Inato,9.3102398,123.3079987
1658,restaurant,Don Roberto's Bar & Restaurant,9.3101196,123.3079987
1659,restaurant,Panda Ice Cream Haus,9.3100004,123.3059998
1660,restaurant,Kawaway,9.3091402,123.3089981
1661,restaurant,Bariotic Restaurant,14.9750004,120.5289993
1662,restaurant,Balconahe Resto,14.0707998,121.3249969
1663,restaurant,Crab House Restaurant,9.6308899,123.8710022
1664,restaurant,Golden Roys Chicken House,9.3040600,123.3079987
1665,restaurant,Alberto's Pizza,9.3086500,123.3050003
1666,restaurant,Saulog Bus Stop Over,14.8880997,120.5270004
1667,restaurant,Capitulo,14.2075996,121.3499985
1668,restaurant,Japanese Yakiniku Restaurant,14.5507002,121.0199966
1669,restaurant,Cafe Via Mare,14.6571999,121.0739975
1670,restaurant,BonChon Chicken,14.6408997,121.0739975
1671,restaurant,Brothers Burger,14.6409998,121.0739975
1672,restaurant,Mom & Tina's Bakery & Cafe,14.6407003,121.0739975
1673,restaurant,Carlo's Pizza,14.5340004,121.0510025
1674,restaurant,Kuse,14.5341997,121.0510025
1675,restaurant,Old Vine Grille,14.5341997,121.0510025
1676,restaurant,Ramen Bar,14.5340996,121.0510025
1677,restaurant,Stacker's Burger Cafe,14.5340004,121.0510025
1678,restaurant,Tokyo Cafe,14.5342999,121.0510025
1679,restaurant,Flamin Grill,9.3179197,123.3069992
1680,restaurant,Alberto's Pizza,9.3202801,123.3000031
1681,restaurant,Kainan sa Fiesta Laguna,14.1878004,121.3359985
1682,restaurant,Lucidel Fishing Resort and Restaurant,14.1731997,121.3160019
1683,restaurant,Arya,14.5746002,120.9840012
1684,restaurant,Cafe Breton,14.5747004,120.9840012
1685,restaurant,Chef's Quarters,14.5745001,120.9840012
1686,restaurant,Flapjacks,14.5747995,120.9840012
1687,restaurant,Sala,14.5544004,121.0240021
1688,restaurant,Mang Inasal,14.6234999,121.0490036
1689,restaurant,The Mango Farm,14.6115999,121.1250000
1690,restaurant,Max's Restaurant Balibago,14.2936001,121.1019974
1691,restaurant,Shakeys,15.0421000,120.6849976
1692,restaurant,Ipar's Restaurante Y Bar De Tapas,10.3057003,123.8980026
1693,restaurant,Da Vinci's - Jones,10.3069000,123.8939972
1694,restaurant,VM Mall,14.3991003,121.0439987
1695,restaurant,Shakey's,14.3961000,121.0449982
1696,restaurant,Mae Krua Thai Cuisine,10.3058004,123.8970032
1697,restaurant,Cebu Beehive Restaurant,10.3064003,123.8970032
1698,restaurant,Angelica Bakeshop,10.3052998,123.8949966
1699,restaurant,Eat!,14.6384001,121.0729980
1700,restaurant,Crystal Jade La Mian Xiao Long Bao,14.6022997,121.0500031
1701,restaurant,Simply Butterflies,9.6977501,124.0999985
1702,restaurant,Matina Swiss Deli and Restaurant,7.0611601,125.5910034
1703,restaurant,Pepper & Peppers,7.0767202,125.6050034
1704,restaurant,Wild Safari Restaurant,7.0824900,125.6100006
1705,restaurant,Epay's Lechon Manok,8.2276497,124.2399979
1706,restaurant,Josephine Restaurant,14.0969000,120.9430008
1707,restaurant,Rack's,14.2473001,121.0630035
1708,restaurant,Army Navy,14.2382002,121.0559998
1709,restaurant,Buffalo's Wings N' Things,14.2378998,121.0559998
1710,restaurant,Chubby's Rib Shack,14.2379999,121.0559998
1711,restaurant,LZM Restaurant,14.2381001,121.0559998
1712,restaurant,Recipes,14.2381001,121.0559998
1713,restaurant,Ted's Lapaz Batchoy,10.7073002,122.5650024
1714,restaurant,Shakey's Pizza,10.3102999,123.8919983
1715,restaurant,Sañogan,6.7289300,125.3590012
1716,restaurant,Tita Fannies,8.2275696,124.2399979
1717,restaurant,Boroy Kainan,6.7347298,125.3629990
1718,restaurant,Zoey's Cafe,8.2280197,124.2379990
1719,restaurant,Merry Muffet Aguinaldo,8.2279997,124.2399979
1720,restaurant,Uncle Tom's,10.7041998,122.5530014
1721,restaurant,Piazza Pizza,10.7042999,122.5530014
1722,restaurant,Calzada Grill,10.7081003,122.5520020
1723,restaurant,Nes and Tat's,10.7097998,122.5510025
1724,restaurant,Freska,10.7054996,122.5520020
1725,restaurant,Big Plate,14.4480000,121.0289993
1726,restaurant,Sen Lek Thai Noodles,14.4509001,121.0299988
1727,restaurant,Maki Moto,14.4415998,120.9810028
1728,restaurant,Maso Grill,14.4516001,121.0029984
1729,restaurant,Tusok BBQ-Han,14.4513998,121.0039978
1730,restaurant,Sen Lek Thai Noodles,14.4510002,120.9779968
1731,restaurant,Halamanan Restaurant,14.5008001,121.2949982
1732,restaurant,Kamalig Restaurant,14.3635998,121.4840012
1733,restaurant,Alona Kew,9.5487099,123.7720032
1734,restaurant,Bolinao Grill,16.3843002,119.8909988
1735,restaurant,Leona Art Restaurant,14.6458998,121.0589981
1736,restaurant,Benga's Paete Eatery,14.3641996,121.4830017
1737,restaurant,Chook's To GO,14.3638000,121.4820023
1738,restaurant,Abé,14.4223003,121.0289993
1739,restaurant,Hokkaido Ramen Santouka,14.4223003,121.0289993
1740,restaurant,The Wholesome Table,14.4222002,121.0289993
1741,restaurant,Max Restaurant,13.1457996,123.7500000
1742,restaurant,Chicken Charlie,14.6364002,121.0009995
1743,restaurant,Margarita Station,15.1665001,120.5839996
1744,restaurant,Ala Eh Bulalo,14.6217003,121.0240021
1745,restaurant,Chowking,14.6248999,121.0479965
1746,restaurant,Taipan Garden Restaurant,16.6182995,120.3170013
1747,restaurant,Yang Chow,14.6036997,121.0800018
1748,restaurant,Gerry's Grill,14.5841999,121.0759964
1749,restaurant,Hap Chan,14.5845003,121.0759964
1750,restaurant,Mang Inasal,14.5527000,121.0139999
1751,restaurant,Max's Restaurant,14.4516001,120.9779968
1752,restaurant,Pancake House,14.5591002,120.9840012
1753,restaurant,The Sizzlin' Pepper Steak,14.5586996,120.9840012
1754,restaurant,Song Tsu,14.5586004,120.9840012
1755,restaurant,Giuseppe,9.5579596,123.7750015
1756,restaurant,Mom & Tina's,14.5545998,121.0220032
1757,restaurant,Persia Grill,14.5541000,121.0230026
1758,restaurant,C.U. Restaurant,9.5506496,123.7760010
1759,restaurant,Zoobic Safari,14.7507000,120.2669983
1760,restaurant,A Veneto,14.5850000,121.0770035
1761,restaurant,Cado's Bbq Grill,7.0833302,125.6039963
1762,restaurant,Gnome Korean Restaurant,7.0850902,125.6110001
1763,restaurant,Mimi & Bros,14.5536003,121.0510025
1764,restaurant,Army Navy,14.6197004,121.0729980
1765,restaurant,Banapple,14.6183004,121.0719986
1766,restaurant,C5 Place,14.6198997,121.0729980
1767,restaurant,Katips,14.6189003,121.0719986
1768,restaurant,The Chicken Rice Shop,14.6197996,121.0729980
1769,restaurant,Ryan's Pizzarelli House,10.3148003,123.8949966
1770,restaurant,Papa Ching's,7.0738502,125.6060028
1771,restaurant,Uncle Cheffy,14.6426001,121.0400009
1772,restaurant,Asya,14.6423998,121.0400009
1773,restaurant,My Thai,14.6423998,121.0400009
1774,restaurant,Jack's Loft,14.6423998,121.0400009
1775,restaurant,Yang Chow,14.6421003,121.0390015
1776,restaurant,Tong Yang,14.6429996,121.0400009
1777,restaurant,Pancake House,14.6422005,121.0400009
1778,restaurant,Onyang's Sweet Products,14.6552000,121.0210037
1779,restaurant,Ice Giants,7.0768099,125.6139984
1780,restaurant,Maxcey's Veranda,7.0757499,125.6090012
1781,restaurant,Tita Dy's,7.0709701,125.6169968
1782,restaurant,Andok's Manok,14.4744997,121.0000000
1783,restaurant,Mang Inasal,14.4750004,121.0009995
1784,restaurant,Joey Pepperoni Pizzeria,14.5709000,121.0520020
1785,restaurant,Zhuang,14.5741997,121.0579987
1786,restaurant,Giligan's,14.5332003,120.9789963
1787,restaurant,Pete's Place,14.5369997,120.9789963
1788,restaurant,The Roadhouse Manila Bay,14.5333996,120.9789963
1789,restaurant,Uno Pizzeria,14.5367002,120.9789963
1790,restaurant,Vikings,14.5405998,120.9789963
1791,restaurant,Tagsarap,14.5886002,121.0400009
1792,restaurant,N' Joy Bar Bq,7.1082902,125.6470032
1793,restaurant,Ariake,14.6342001,121.0360031
1794,restaurant,Don Makoy Pancit Lucban,14.6339998,121.0360031
1795,restaurant,H Cuisine,14.6337996,121.0360031
1796,restaurant,Hot Shots,14.6329002,121.0350037
1797,restaurant,Rub Ribs BBQ,14.6337996,121.0360031
1798,restaurant,Agave,14.6337996,121.0350037
1799,restaurant,Chili's,14.6329002,121.0350037
1800,restaurant,Congo Grill,14.6334000,121.0350037
1801,restaurant,Domo,14.6330996,121.0350037
1802,restaurant,Don Henricos,14.6335001,121.0350037
1803,restaurant,Dulcinea,14.6336002,121.0350037
1804,restaurant,Italianni's,14.6337996,121.0350037
1805,restaurant,Kalye Juan,14.6338997,121.0350037
1806,restaurant,Phở Hòa,14.6336002,121.0350037
1807,restaurant,Shakey's,14.6343002,121.0350037
1808,restaurant,Norma's Special Pancit Luglog,14.6547003,120.9489975
1809,restaurant,grand ficus,7.0183802,125.0849991
1810,restaurant,Twinkle Pop,14.1781998,121.2429962
1811,restaurant,Bulakena Bulalo,14.5668001,121.2020035
1812,restaurant,Chowking,14.6219997,121.0240021
1813,restaurant,Bamboo Grande,14.6250000,121.0329971
1814,restaurant,Max's Restaurant,14.6216002,121.0240021
1815,restaurant,Chicken Tsunami,14.6218004,121.0250015
1816,restaurant,Shakeys,14.5986996,121.0589981
1817,restaurant,Paseo Rizal,14.5293999,121.2440033
1818,restaurant,Alba's,14.4216995,121.0350037
1819,restaurant,Pancake House,14.4245996,121.0270004
1820,restaurant,Neil's Kitchen,14.4215002,121.0339966
1821,restaurant,The Appenzeller,14.4278002,121.0240021
1822,restaurant,Zong,14.4217997,121.0339966
1823,restaurant,Pedroack Bar & Grill,14.5745001,121.0279999
1824,restaurant,Bobis Resto bar,14.7242002,121.0559998
1825,restaurant,Jonalyn Eatery,14.6562996,121.0189972
1826,restaurant,Mang Bok's Manok,14.6562004,121.0189972
1827,restaurant,Kainan sa Roosevelt,14.6359997,121.0179977
1828,restaurant,Chowking Tuguegarao,17.6117992,121.7279968
1829,restaurant,Purple Velvet Food House,14.1690998,121.2409973
1830,restaurant,Phuong,14.1696997,121.2440033
1831,restaurant,Siomai Co.,14.1698999,121.2440033
1832,restaurant,Carmensita's,14.1696997,121.2440033
1833,restaurant,Tofi's Food Corner,14.1688995,121.2409973
1834,restaurant,Sinapdan Resort,11.2708998,124.9810028
1835,restaurant,K Sosyal Karinderia,14.5017996,121.0169983
1836,restaurant,Savory,14.6764002,120.9810028
1837,restaurant,Nadies Chicke House,6.4951000,124.8479996
1838,restaurant,David's Tea House,14.6377001,121.0009995
1839,restaurant,Dhenzmer's,14.1696997,121.2429962
1840,restaurant,JCE Restaurant,15.3606005,120.5910034
1841,restaurant,Singapore Food Republic,14.5538998,121.0469971
1842,restaurant,Shi Lin,14.5538998,121.0469971
1843,restaurant,Rustica,15.3436003,120.6060028
1844,restaurant,Shang Tsu,14.6259003,121.0339966
1845,restaurant,Tiger Grill,15.1421003,120.5770035
1846,restaurant,Patis Tito Garden Cafe,14.0237999,121.3519974
1847,restaurant,Antonio's Restaurant,14.1002998,120.8939972
1848,restaurant,Bahay Kubo Food Hauz,15.4500999,120.7119980
1849,restaurant,Park & Grill Restaurant,15.4464998,120.7190018
1850,restaurant,Café George,10.3297005,123.9100037
1851,restaurant,XO 46 Bistro Filipino,14.5585003,121.0210037
1852,restaurant,Hai Kang,14.5972004,121.0410004
1853,restaurant,Nikolai,6.1118598,125.1770020
1854,restaurant,Becky's Kitchen,14.5646000,120.9990005
1855,restaurant,Seaside Macapagal,14.5452995,120.9869995
