FID,name,latitude,longitude
0,Liana's,14.5474005,120.9960022
1,SaveMore Market,14.5379000,121.0000000
2,Robinson's Supermarket,14.6352997,121.1019974
3,Rustan's Fresh Market,14.5361004,121.0189972
4,Rj Supermarket,14.5594997,121.0839996
5,Puregold Jr.,14.5857000,121.0019989
6,Republic Supermarket,14.6028996,120.9820023
7,Savemore,14.4622002,120.9619980
8,cambridge prep,14.4225998,121.0299988
9,St Patrick,14.6292000,121.0569992
10,F. T. I. Retail Market,14.5087004,121.0449982
11,Welcome Supermarket,14.6175003,121.0019989
12,Rustan's Supermarket,14.5998001,121.0690002
13,Sänti's Delicatessen,14.5999002,121.0690002
14,CAS Hypermart,14.0705004,121.3229980
15,WalterMart,14.6216002,121.0199966
16,Puregold Cainta,14.6197996,121.1019974
17,Unitop,14.2881002,121.4110031
18,Johann Commercial,10.3262997,123.9520035
19,Home Depot,14.9427004,120.8820038
20,South Supermarket,14.6470003,121.0979996
21,Puregold,14.3467999,121.0650024
22,Healtea Savemore Emall,10.2980003,123.8949966
23,Metro Fresh & Easy,10.3329000,123.9489975
24,Robinsons Supermarket,14.0965004,120.9420013
25,Robinson's Supermarket,14.4459000,121.0279999
26,Tropical Hut Supermarket,14.4456997,121.0289993
27,Market Basket,7.1019802,125.6330032
28,168 Hypermart,10.3121004,123.9499969
29,Narvacan Mall,17.4263992,120.4739990
30,Shopwise,14.4188004,121.0410004
31,Felcris Supermarket,7.0694399,125.6050034
32,Cyotto Stop,14.5537004,121.0139999
33,New Day Marketing,7.0140200,125.4950027
34,Suncor Grocery,7.0147300,125.4980011
35,Robinsons victoria tower,14.6362000,121.0279999
36,Rustan,14.6360998,121.0360031
37,Robinson's Starmills,15.0500002,120.6989975
38,Puregold,15.0396004,120.6800003
39,Honda desmark,14.4368000,120.8899994
40,Garbes-Dizon Supermarket,15.0333004,120.6910019
41,SM Hypermarket,15.1687002,120.5790024
42,SaveMore,10.3247004,123.9349976
43,M & W Townstore,14.2073002,121.3499985
44,Samulco,7.1524701,125.6579971
45,Goodwill,14.2648001,121.4380035
46,Walter Mart Sta. Cruz,14.2563000,121.3919983
47,Goodwill,14.2867002,121.4110031
48,ICM - Supermarket,9.6560202,123.8700027
49,few Talipapa & School Supplies,14.8420000,121.0910034
50,C & A Grocery,14.8364000,121.0849991
51,Talipapa,14.8371000,121.0859985
52,SM Supermarket,15.0535002,120.6989975
53,Emilus Supermarket,14.4080000,120.9769974
54,Robinsons,14.6555996,120.9830017
55,Paco Market,14.7309999,120.9219971
56,Bulacan Market,14.7672997,120.8960037
57,Bonifacio Market,14.6576996,120.9850006
58,Sioland Supermarket,14.6929998,121.0299988
59,Puregold Jr.,14.6255999,120.9879990
60,Taguig People's Market,14.4884996,121.0609970
61,Super8,14.8542995,120.8160019
62,Granma's Supermarket,14.8521004,120.8170013
63,Rustan's Supermarket,14.5527000,121.0199966
64,LCC Mall,13.6197996,123.1800003
65,Robinsons E-Mall,13.6250000,123.1859970
66,Robetson Mall,13.6237001,123.1839981
67,Krisdale,13.8781004,120.9250031
68,Alvarez,13.8802996,120.9169998
69,Citimart,13.8806000,120.9169998
70,Royal Supermaket,11.7082005,122.3690033
71,Liana's Supermarket,14.4751997,121.0009995
72,Savemore,14.6122999,121.0319977
73,Waltemart Supermarket,14.2910995,120.9079971
74,Marianing Superstore,11.7104998,122.3649979
75,SM Hypermarket,14.3774004,121.0449982
76,Tropical Hut,14.4828997,121.0360031
77,Maki SP,11.7060003,122.3639984
78,Garcia's,14.6208000,121.0220032
79,Ong SIn Sui,15.2230997,120.5749969
80,Citimart Bauan,13.7903996,121.0110016
81,Lopue's East,10.6637001,122.9670029
82,Consuelo,10.6665001,122.9489975
83,Kits Store,10.6677999,122.9479980
84,Munsterific,10.6716003,122.9599991
85,Robinson's Supermarket,10.6917000,122.9589996
86,Rallos,10.6702003,122.9710007
87,Variety Shop,10.6625004,122.9670029
88,La botica,10.6792002,122.9589996
89,Public-Market,13.7616997,120.9270020
90,Plaza Marcela,9.6516304,123.8519974
91,Po's Marketing,10.6669998,122.9449997
92,LCC Hardware,10.6668997,122.9489975
93,Clark Commissary,15.1820002,120.5329971
94,Robinson's Supermarket,14.3467999,121.0630035
95,Super8 Supermarket,14.6257000,121.1240005
96,Country Mart,10.6990004,122.9619980
97,SaveMore,10.6598997,122.9489975
98,Queendies,10.6599998,122.9499969
99,Savemore,14.4949999,121.2919998
100,"Jolibee, Sum-ag",10.6030998,122.9199982
101,Asean Supermart,16.4116993,120.5910034
102,Anson Supermarket,14.6287003,121.0650024
103,Robinsons Supermarket,14.5794001,121.0459976
104,Los Amigos Wet and Dry Market,7.1448398,125.4789963
105,Ever Supermarket,14.6591997,121.1129990
106,NCCC Calinan Supermarket,7.1912999,125.4550018
107,M&W Townstore,14.3640003,121.4840012
108,Puregold Jr.,14.4535999,120.9759979
109,Robinson's Supermarket,10.2601995,123.8300018
110,AA Supermarket,15.0298996,120.6930008
111,Ves Mart,15.0776997,120.6409988
112,Market Price,15.0778999,120.6409988
113,BuyMax Supermarket,15.0783005,120.6399994
114,S.T. Supermarket,15.1393995,120.5889969
115,FreeWay Commercial,15.1391001,120.5889969
116,Soses Supermarket,15.1393995,120.5879974
117,SM Savemore Jaro,10.7243996,122.5559998
118,Ledi Supermart,10.7248001,122.5579987
119,Hidas Supermarket,15.1288996,120.5979996
120,Robinson Supermarket,14.6180000,121.0080032
121,SaveMore Market,15.1389999,120.5859985
122,SM Hypermarket,14.5368996,120.9820023
123,My Store,14.5697002,121.0250015
124,San Roque Supermarket,14.7217999,121.0410004
125,Mastersquare,13.6229000,123.1839981
126,A Line Supermarket,15.1604996,120.5920029
127,Kwik-B,14.6590996,121.1129990
128,Citimart,13.7566004,121.0579987
129,Spar Mart,11.4259005,122.0550003
130,NE Super Bodega,15.4934998,120.9759979
131,Iloilo Supermart,10.6976995,122.5680008
132,Don Bosco Market,14.6161003,120.9619980
133,GQ Mart,15.0282001,120.6940002
134,Jumbo Jenra,15.0403004,120.6819992
135,Super 8,14.5458002,120.9990005
136,SM Savemore Quintin Salas Jaro,10.7413998,122.5630035
137,Iloilo Society Commercial,10.6940002,122.5699997
138,Washington,10.6941004,122.5709991
139,Ledi Supermart,10.6935997,122.5670013
140,Marymart Mall,10.6969995,122.5670013
141,C-GAN ENTERPRISES,10.6966000,122.5699997
142,Iloilo Supermart - Atrium,10.7013998,122.5680008
143,SM Supermart,14.6183996,121.0559998
144,CVC,14.6532001,120.9840012
145,Robinson’s Supermarket,14.8204002,120.9049988
146,South Supermarket,14.8256998,120.8960037
147,Anson's,14.6190996,121.1019974
148,Best Stop Mart,14.6594000,120.9710007
149,Parco Supermarket,14.6504002,121.1060028
150,PureGold Jr,14.1173000,120.9619980
151,Aguila,14.1435003,120.9560013
152,Puregold Jr,14.5797997,120.9810028
153,Robinsons Easymart,14.7059002,121.0690002
154,Irohin Market,14.1283998,120.9800034
155,Buenas Supermart,7.4475999,125.8079987
156,New Parkway Mini Mart,13.5021000,120.9530029
157,Hypermart,9.3015699,123.2979965
158,Come N Shop,14.6566000,121.0199966
159,Crossings Supermarket,14.6392002,121.0309982
160,Bayanihan Grocery Shop,10.6032000,122.9209976
161,Fred Valencia Mini Mart,15.0854998,120.6480026
162,Gaisano Capital Passi,11.1056004,122.6449966
163,Del Rosario Grocery,14.9750996,120.5270004
164,SM Cherry,14.6253996,121.1340027
165,Market of Antipolo,14.6190004,121.1699982
166,Penafrancia Market,14.6252003,121.1389999
167,Atlag Market,14.8283005,120.8219986
168,Super 8,14.5663004,121.0459976
169,Mart One,14.5658998,121.0459976
170,Areca's,6.9506302,126.2220001
171,Shopwise Express,14.9673996,120.6320038
172,Ever Supermarket,14.6332998,121.0199966
173,Buenas Supermarket,7.4475298,125.8079987
174,Samulco,7.0505099,125.5410004
175,NCCC Panacan,7.1439400,125.6610031
176,Felcris,7.1873598,125.4589996
177,RCS Supermarket,15.4891996,120.5910034
178,Samulco,7.0580702,125.5680008
179,Samulco,7.0753002,125.6179962
180,Save More Lanang,7.0967898,125.6179962
181,Elizabeth Super Market,14.6761999,120.5240021
182,Puregold,14.4256001,121.0270004
183,Robinsons Supermarket,10.6940002,122.5660019
184,SM Delgado Supermart,10.6983995,122.5670013
185,Parco Selections Supermarket,14.4595003,120.9940033
186,New Hope Trading,7.1914802,125.4550018
187,Marketplace,14.5469999,121.0350037
188,Robinsons Supermarket,10.3095999,123.8939972
189,Gaisano Mall of Davao,7.0777302,125.6139984
190,Puregold,14.8914003,120.7050018
191,Maribel Supermarket,14.8900995,120.7030029
192,Ignacio Supermarket,14.9041004,120.7149963
193,Jollibee,14.9080000,120.7160034
194,RO Supermarket,14.2732000,121.4550018
195,Puregold,15.1386995,120.5879974
196,South Emerald Supermarket,14.2854996,121.4130020
197,Novo,14.2832003,121.4140015
198,AllDay Supermarket,14.4492998,120.9779968
199,Ororama,8.4771900,124.6490021
200,Happy Valley Supermarket,14.8414001,120.2860031
201,Choa's Supermarket,14.8401003,120.2870026
202,Vercon Supermarket,14.8410997,120.2870026
203,Jenra Mall Palengke,15.1403999,120.5879974
204,SM Savemore Supermarket,14.6316996,121.0820007
205,Town Market,8.9869003,125.3410034
206,SM Hypermarket,14.4484997,120.9810028
207,Super8,14.4491997,120.9899979
208,SM Supermarket,14.4329004,121.0110016
209,NVM Mall,7.9048700,125.0920029
210,Gaisano Valencia,7.9036698,125.0899963
211,Novo,7.9023800,125.0910034
212,Super 8 Supermarket,14.5511999,121.0749969
213,Jan's Super Saver,14.5444002,121.0690002
214,Villahermosa Groceri,9.1229496,125.5339966
215,Plaridel Commercial Complex,8.6057396,123.7229996
216,Walter Mart Supermarket,14.4238005,120.9400024
217,NE Supermarket,15.4878998,120.9639969
218,Square mart,14.2931004,121.0059967
219,Novo,14.2841997,120.9970016
220,SME,14.2835999,120.9980011
221,SM Savemore Market,15.1392002,120.5869980
222,Savemore,14.5501003,120.9960022
223,Robinsons Supermarket,14.2946997,121.1029968
224,Emmaflor,14.5433998,121.0110016
225,Robinson's Supermarket,7.0913901,125.6110001
226,SM Supermarket,14.6260004,121.1200027
227,Savemore,14.7215996,121.0370026
228,Gaisano Capital Sogod,10.3851004,124.9850006
229,Sugni Superstore,7.1063800,124.8300018
230,Robinsons Supermarket,9.2985897,123.3040009
231,Red Camia,15.6875000,120.4160004
232,Lachmi Mall,7.0655799,125.6080017
233,Abad Supermarket,14.4208002,120.9400024
234,Factory Depot Tile center,12.9779997,123.9860001
235,SM Supermarket,14.4447002,120.9499969
236,Nesabel Supermarket,14.5452995,121.0650024
237,SM Supermarket,14.5857000,121.0569992
238,SM Hypermarket,14.6561003,121.0319977
239,Robinsons Supermarket,14.5911999,121.0589981
240,SM Savemore / Nisway Autoparts,14.6105003,121.0920029
241,SM Savemore,14.6444998,121.0739975
242,Robinsons Supermarket,14.4132996,120.9420013
243,Robinsons Cybergate Davao,7.0997801,125.6240005
244,Robinsons Supermarket,14.8570004,120.8130035
245,Robinsons Supermarket,14.6632004,121.0680008
246,Robinsons Supermarket,14.6583004,120.9609985
247,Robinsons Supermart,16.0513000,120.3420029
248,Robinsons Supermarket,14.7306004,121.1389999
249,SM Hypermarket,14.4827003,120.9940033
250,Ever Supermarket,14.6751003,120.9840012
251,Savemore,14.6064997,121.0189972
252,Robinsons Supermart,7.8230600,123.4380035
253,Walter Mart Supermarket,14.8809996,120.8659973
254,Robinsons Supermarket,15.4602003,120.9499969
255,SM Supermarket,13.6209002,123.1900024
256,Mall of the Valley,17.6145000,121.7279968
257,Cas Hypermart,14.0647001,121.3229980
258,K Plaza Supermarket,14.6259003,121.0370026
259,Robinsons Supermart,14.5904999,121.0950012
260,Tacurong Fitmart,6.6878099,124.6780014
261,Ever Supermarket,14.6091003,120.9789963
262,"Cang's,inc.",9.3157301,123.3020020
263,Puregold Jr.,14.5886002,121.1760025
264,Central Warehouse,8.0537300,126.0579987
265,Shopwise,14.5627003,120.9889984
266,Rey-Sal Supermarket,14.3393002,121.0839996
267,Unitop,8.2286701,124.2379990
268,Squarre Land,8.2279396,124.2419968
269,LCC Supermarket,13.1461000,123.7440033
270,Unimec Supermart,14.5481997,121.0630035
271,City Square,9.6422997,123.8560028
272,BQ Mall,9.6419201,123.8550034
273,Fooda Hypermart,10.3729000,123.9550018
274,Robinsons Supermarket,10.3409004,123.9130020
275,National Bazaar Grocery,16.6170998,120.3160019
276,Ever Gotesco Supermarket,14.6782999,121.0859985
277,GL Supermarket,14.6402998,121.0169983
278,Carpark Service Elevator,14.3021002,120.9570007
279,Highmart Supermarket,14.6111002,121.0049973
280,WalterMart,14.4715996,121.0070038
281,FCI Citi Mall,17.6117001,121.7289963
282,Candice Supermarket,17.6130009,121.7289963
283,Luvel's,14.0840998,121.1500015
284,Robinson Super Market,17.1289997,121.8659973
285,Puregold,15.7695999,119.9079971
286,Jumbo Jenra Supermarket Sindalan,15.0797005,120.6380005
287,Rustan's Supermarket,10.3182001,123.9049988
288,Rustan's Supermarket,14.6428003,121.0739975
289,NCCC Choice Supermarket,7.0683999,125.6039963
290,SM Hypermarket,14.3835001,120.9769974
291,CTBAC,10.6684999,122.9479980
292,Robinson Supermarket,14.6792002,120.5410004
293,Bilwang New Mini Mart,10.8816996,124.4700012
294,Robinsons Department Store and Supermarket,14.6087999,120.9729996
295,Savers' Supermarket,14.0698996,120.6320038
296,CSI Candon,17.1835003,120.4449997
297,Citizen's Grocery,17.1896992,120.4479980
298,Gaisano Grand Mall,7.4453101,125.8109970
299,Centro Mart,13.4565001,123.6800003
300,Prince Warehouse Club,10.5248003,124.0120010
301,Rose Supermarket,15.9301004,120.3479996
302,Csi Citymall,16.0235004,120.3229980
303,Csi Citymall,16.0238991,120.3229980
304,Robinson Supermarket,15.0501003,120.6989975
305,Rosing's,13.4744997,121.8619995
306,Gaisano Supermarket,10.7069998,122.5670013
307,Centro,14.0698004,121.3249969
308,Gaisano Capital Oton,10.6913996,122.4700012
309,Ever,14.6865997,120.9960022
310,Anda Public Mrket,16.2896996,119.9489975
311,CVC Supermarket,14.7077999,120.9919968
312,Choice Mart,7.0742202,125.5189972
313,Ace Centerpoint,6.4998002,124.8450012
314,Hypermarket,14.6181002,121.0009995
315,Save More,14.6927004,120.9639969
316,LCC Expressmart,13.1485996,123.7529984
317,Cangs,9.3079901,123.3069992
318,Imperial Appliance Plaza,14.4379997,121.0039978
319,Geolie Metro Plaza,9.4173698,123.3330002
320,SM Supermarket,14.6267004,121.0839996
321,Robinsons,8.4821796,124.6539993
322,ER Super Mall,6.9564400,126.2129974
323,ER Superstore,6.9504099,126.2200012
324,Unitop Maguikay,10.3355999,123.9390030
325,Gaisano Roxas Marketplace,11.5790997,122.7570038
326,Gaisano Supermarket SukiClub,8.4780598,124.6510010
327,Quality Appliance Plaza,8.4781704,124.6480026
328,SM Marketplace,14.5663004,121.0289993
329,SaveMore,14.1705999,121.2440033
330,SM Savemore,14.6014996,120.9810028
331,SaveMore,14.5508003,120.9970016
332,Cagayan Balita Marketing,8.4786596,124.6529999
333,MS Supermarket,13.9454002,121.1620026
334,Wellcome,14.5682001,121.0859985
335,Tropical Hut Foodmart,14.5057001,121.0410004
336,SM City Supermarket,8.4560003,124.6230011
337,Robinsons Supermarket,14.6104002,121.0810013
338,Shama School of BulacanVilla Samantha Home,14.7299004,120.9769974
339,Robinsons Place Novaliches,14.7363997,121.0569992
340,Robinson's Supermarket - Silang,14.2131996,120.9680023
341,Mightee Mart,14.5784998,121.0820007
342,SM Hypermart,14.5649004,121.1389999
343,Puregold Hagonoy,14.8357000,120.7330017
344,Mary's Corner Grocery Store,14.5993004,120.9840012
345,Puregold Baguio,16.4130993,120.5790024
346,Siolan Supermarket,14.7898998,120.5390015
347,Tiongsan Supermarket,16.4130993,120.5950012
348,Rustan`s Fresh,8.4854097,124.6520004
349,Mindpro,6.9080000,122.0759964
350,Liana's Supermarket,14.5595999,121.0839996
351,Robinson's Supermarket,14.2133999,121.1169968
352,Simplicity Supermarket,14.8018999,121.0360031
353,Puregold Jr.,14.6283998,121.0139999
354,168,10.3109999,123.9520035
355,Multinational Supermarket,14.4938002,121.0039978
356,Circle J,14.8275003,120.2829971
357,YBC Supermart,14.8305998,120.2799988
358,Savemore Market,14.4160004,121.0390015
359,Farmacia Comprendio,11.1801004,119.3899994
360,SM Hypermart ssm eton,14.6438999,121.0390015
361,Jenra Mall Supermarket,15.1360998,120.5879974
362,Robinson Supermarket Nepo Mall,15.1352997,120.5879974
363,Save Wise Supermarket,16.0235996,120.7480011
364,CSI Tayug,16.0209999,120.7470016
365,JY Supermarket,10.3304005,123.8980026
366,Puregold,14.2285004,121.1389999
367,J Centre Mall,10.3360004,123.9339981
368,Savemore,10.3627005,123.9489975
369,Metro Gaisano Alabang Supermarket,14.4245005,121.0299988
370,Puregold,14.5850000,121.0579987
371,N E Bodega Supermarket,15.4673004,120.9629974
372,SM Supermarket,14.4575005,121.0329971
373,Novo Fashion House,13.9202003,122.0979996
374,All Day Supermarket,14.3768997,121.0110016
375,Capparos Mart,13.9208002,122.1009979
376,Caparros Mart,13.9210997,122.1019974
377,Tiong San Supermarket,16.4433002,120.5920029
378,All Day,14.5825005,121.0530014
379,NE Super Bodega,15.7810001,120.9680023
380,Prince Hypermart Naval,11.5639000,124.4000015
381,Puregold Extra,14.6588001,121.1129990
382,Wilmar's,11.2216997,125.0029984
383,Rustan’s Fresh,14.5577002,121.0230026
384,Unimec Supermarket,14.5660000,121.0459976
385,Eastern supermarket,14.4989004,121.2850037
386,Puregold Marasbaras,11.1980000,125.0059967
387,kilat,16.6770992,120.4250031
388,New City Supermarket,16.4200001,120.5979996
389,Sun Trading,6.1082501,125.1800003
390,Unitop,6.1094899,125.1790009
391,WalterMart Supermarket,14.2803001,120.8710022
392,Savemore,14.5215998,121.0650024
393,Friendly Mart,8.5851603,123.3399963
394,Prince Warehouse Club - Bogo,11.0538998,124.0120010
395,Super Metro Bogo,11.0551996,124.0139999
396,SaveMore Market,16.6916008,121.5550003
397,Robinsons Supermarket,14.5854998,121.1129990
398,Glee Mart,14.6590004,121.1129990
399,Robinsons Supermarket,11.2082005,125.0080032
400,Puregold Jr. Taytay Palengke,14.5595999,121.1360016
401,University Store,14.2167997,121.0390015
402,Gaddi Arcade,15.0949001,120.7659988
403,TWG Mart,14.5757999,121.0410004
404,Vallecer's,8.5876303,123.3399963
405,Vallecer's,8.5872498,123.3410034
406,Lee Plaza,9.3018103,123.2969971
407,Mart 1 Cauayan,16.9393005,121.7689972
408,Puregold Jr. Biñan,14.3294001,121.0759964
409,Puregold Jr.,16.9367008,121.7740021
410,Amie's,16.9365005,121.7740021
411,Sanitary Mart,16.9353008,121.7740021
412,CSI,15.8113003,120.4570007
413,Sun Xi ""Mini-Store"",9.7119999,123.3820038
414,Baloc Market,15.6413002,120.8870010
415,CVC Supermarket,15.5837002,120.9199982
416,Mart One,17.6119003,121.7289963
417,Rempson Supermarket,14.5595999,121.0839996
418,Gemmaglenn,14.1155996,122.9570007
419,IP Bombase Store,14.1173000,122.9560013
420,abandoned building,14.6056004,121.0189972
421,LCC,14.1170998,122.9560013
422,Puregold,14.4649000,120.9680023
423,Savemore Market,14.5149002,121.2399979
424,Choice Mart,7.0722499,125.5479965
425,Bagong Pagasa Wet Market,14.6613998,121.0339966
426,Puregold,13.6232004,123.1839981
427,Puregold Jr.,14.5373001,121.0680008
428,Sunrise Saver Supermarket,13.5832005,124.2340012
429,Magcalas Store,14.9617996,120.6330032
430,KOKOY'S GROCERETTE,11.2420998,125.0029984
431,Grocery Robins,11.0053997,124.6100006
432,Mercy Grocery,11.0080004,124.6070023
433,Season Grocery,11.0066996,124.6100006
434,Market Place,17.5622997,121.6969986
435,Puregold,14.3283997,120.9339981
436,Savemore - Marulas,14.6743002,120.9830017
437,BizMart,14.8513002,120.2620010
438,Wellcome Supermarket,14.6243000,121.0319977
439,OJN Supermarket,7.1096401,125.6320038
440,Puregold Southgate,14.5409002,121.0189972
441,Puregold,13.9642000,121.3209991
442,Benguet Supermart,16.4125996,120.5970001
443,Johnny's Supermarket,15.1353998,120.5899963
444,Puregold Lanang,7.1145101,125.6529999
445,Savemore,14.4224997,120.9420013
446,Ultramega Supermarket,14.0965996,120.9169998
447,Gaisano Supermarket,10.6592999,122.9400024
448,RDM Mart,12.8450003,120.7789993
449,St. Blaise Grocery & Bakeshop,7.2776399,124.4229965
450,Shopwise,14.2503004,121.0650024
451,Ka Martin Grocery,14.1360998,120.9560013
452,Puregold,14.6786003,120.5400009
453,Savemore Market,14.6230001,121.0559998
454,Super 8,14.6665001,121.0429993
455,Robinson's Supermarket,14.6459999,121.0970001
456,"Puregold, Jr.",14.6908998,120.9629974
457,7- Eleven,10.6619997,122.9660034
458,Subic Savers,14.8774004,120.2350006
459,Pableo Poultry Supply,14.8778000,120.2340012
460,Mayden Clark Trading,14.8778000,120.2340012
461,Vercons  Supermarket,14.8771000,120.2340012
462,Assi Mart,10.3211002,123.9110031
463,Alcoben Trading,14.6978998,121.1090012
464,Needs Groceries,14.2240000,120.9710007
465,Yamazaki,14.5535002,121.0139999
466,Jr Gaisano,6.9570098,126.0120010
467,Metro Wholesale Mart,10.2971001,123.8990021
468,SM Hypermarket,14.6856003,120.9769974
469,Hanaro Korean Grocery,15.1771002,120.5159988
470,Rustan's Supermarket,10.3099003,123.8750000
471,Robinsons Supermarket,9.3075800,123.3079987
472,LB Supermarket,6.9279499,122.0780029
473,Emay's Minimart,14.8410997,120.8659973
474,Franie's Store,11.3071003,124.3710022
475,Store,14.8179998,121.1679993
476,Traders Superstore,8.5853596,123.3420029
477,Puregold,14.3973999,121.0449982
478,Ever Supermarket,14.5439997,121.0680008
479,Savemore Consolacion,10.3802004,123.9649963
480,JK Salazar Grocery,6.7877898,125.2129974
481,Gaisano Grand Tibungco,7.1960001,125.6470032
482,Great Wall,9.3643103,122.8079987
483,Victoria Supermarket,16.4144993,120.5970001
484,Iceland,14.8762999,120.2320023
485,South Emerald,13.9612999,121.5999985
486,Boongaling Minimart,13.9303999,121.4459991
487,Puregold Pagsanjan,14.2649002,121.4400024
488,Gaisano Supermarket,6.1179399,125.1849976
489,CELBERT Merchandising,14.2223997,120.9729996
490,Grandma's Mini-mart,14.8739004,120.8219986
491,Everwin Mart,14.8431997,120.8130035
492,Citymart,14.8671999,120.8209991
493,Puregold,14.8287001,120.8850021
494,Robinsons Supermarket,14.8802996,120.8669968
495,Puregold,14.8762999,120.8629990
496,Meat & Fish Section,14.9111996,120.7669983
497,Holiday Supermart,16.4225998,120.5910034
498,Puregold - Bangued,17.5911999,120.6179962
499,Robinsons Supermarket,10.6962996,122.5449982
500,His and Her’s Grocery,14.9120998,120.7669983
501,Bilan’s Supermarket,14.9066000,120.7679977
502,Daily Supermarket,14.6210003,121.0640030
503,Gaisano Savers Mart,10.2902002,123.9680023
504,5 Cents Up Supermart,16.4137001,120.5970001
505,T.P Baldoza,11.2163000,123.1090012
506,Zuñiga Supermarket,14.7293997,121.1429977
507,OK 7 Convenient store,15.2214003,120.5749969
508,Robinsons Supermarket,14.5409002,120.9889984
509,Good Will Supermarket,14.2580996,121.3970032
510,Puregold,14.2073002,121.0979996
511,Greenville,6.0871401,125.1320038
512,Robinsons Supermarket,14.4428997,120.9980011
513,Robinsons Easymart,14.4343004,121.0439987
514,TSF Mart,13.9637003,121.5260010
515,Ongville,13.9635000,121.5260010
516,Zafeway,12.3990002,121.9820023
517,Super8,14.0697002,121.3229980
518,Robinsons Selections,14.5510998,121.0439987
519,Puregold Jr. (Jeepney Market),14.6897001,120.9739990
520,Supersaver Grocery,11.7767000,124.8840027
521,Supersaver Grocery,11.7777004,124.8830032
522,Save More Market,14.5305996,121.1539993
523,Isetann Supermarket,14.6229000,121.0530014
524,Robinson Supermarket,14.2423000,121.1309967
525,SM Hypermart,14.5637999,121.0220032
526,7 Eleven San Agustin Branch,10.6993999,122.5619965
527,Robinson's Supermarket,14.3191996,121.0960007
528,Shopwise,8.4817400,124.6579971
529,Robinsons Supermarket,14.5949001,121.1729965
530,Lester Lace Grocery,11.7747002,124.8820038
531,Alfonso's Store,14.1850996,121.5120010
532,Superama,7.2005501,124.2379990
533,Ever Supermarket,14.7086000,120.9459991
534,Ultra Mega,13.8774004,121.2129974
535,RBM Grocery Store,14.8521004,120.2539978
536,Puregold,7.2220502,124.2490005
537,Puregold Lipa,13.9442997,121.1669998
538,TT and Company,9.7837696,125.5009995
539,Dumoy Rice Trader,7.0403500,125.5260010
540,Maan's Bakery,7.0412998,125.5270004
541,UniMakerSales,6.9470801,122.0999985
542,Walter Mart - Serin,14.1135998,120.9589996
543,Metro Supermarket,14.5889997,121.0370026
544,Robinsons Supermarket,14.6869001,120.9960022
545,Wilson Marketing,11.2454996,124.9990005
546,M.Y. Supermarket,11.2456999,124.9990005
547,Magic Supermarket,15.9202995,120.4130020
548,City Stop,11.2409000,125.0019989
549,Rustan's Fresh,14.5623999,121.0159988
550,Rustan's Supermarket,10.3169003,123.9059982
551,Rustans,14.3922997,121.0159988
552,Super 8,14.5302000,120.9970016
553,Gaisano Grand Mall Talamban,10.3666000,123.9140015
554,Gaisano Country Mall,10.3396997,123.9110031
555,Ever Supermarket,14.6255999,121.1389999
556,Super 8,14.6020002,120.9879990
557,King One General Merchandise,14.6955996,121.1190033
558,Allisons,14.3955002,120.9680023
559,Robinsons Supermarket,14.7648001,120.9929962
560,Ever Supermarket,14.4665003,121.0210037
561,Fisher Supermarket,14.6339998,121.0199966
562,Puregold Jr.,14.5319996,120.9970016
563,Savemore,14.5323000,120.9940033
564,Savemore Market,14.3613997,121.0569992
565,Rustan's,14.5976000,121.0370026
566,Puregold,14.6051998,121.0230026
567,Sun Mart Supermarket,6.0784402,125.1520004
568,Wang-Lai Mart,14.6379004,121.0009995
569,The Green Company Organic + Natural,14.6393995,121.0009995
570,Jia Bao Mini Mart,14.6331997,121.0019989
571,ZMJ,10.8275995,119.5159988
572,Iceland,14.8772001,120.2340012
573,RGS Ice Plant -  subic,14.8978004,120.2419968
574,"Absolute Essentials Traders, Inc.",9.7894802,125.4929962
575,Lensing's Enterprises,11.1594000,124.9899979
576,Rustan's,14.5654001,121.0370026
577,Puregold,14.4390001,120.9489975
578,Citimart,13.7585001,121.0569992
579,SM Supermarket,13.7560997,121.0690002
580,Excel Tom's Supermarket,13.7586002,121.0569992
581,Prince Warehouse,9.1222401,125.5339966
582,Walter Mart Supermarket,14.0745001,121.1500015
583,TGP,8.9474297,125.5400009
584,Libe's Store,11.1646004,124.0260010
585,Tiya Cording Store,11.1644001,124.0339966
586,MYL Store,9.6092196,124.2040024
587,Taboan,9.7887201,123.3519974
588,Ministop,14.4436998,120.9240036
589,CK Supermarket,14.4203997,120.9250031
590,Parkway Supermarket,9.7719498,125.4840012
591,Gaisano Capital Supermarket,9.7640400,125.4840012
592,Amlan Paradise Supermart,9.4564199,123.2310028
593,SM Savemore,14.2070999,121.0230026
594,Princess Abigail Store,9.2916498,123.2689972
595,Puregold Calasiao,16.0216999,120.3529968
596,Coop St. Joseph,16.1965008,121.2399979
597,RO Supermart,16.3875008,121.1080017
598,Savemore Market,14.2069998,121.0230026
599,Eleven Twelve,14.5670004,121.1880035
600,The Marketplace,14.5516996,121.0479965
601,Savemore,14.3991003,120.9390030
602,NCCC Supermarket,7.0754199,125.6210022
603,R. Lapid's Chicharon,16.4095993,120.5920029
604,Blue Fields Mart,10.8253002,122.5319977
605,Super K,10.8224001,122.5289993
606,Kimsan Department Store,6.6887102,124.6750031
607,Gaisano Supermarket,10.7164001,122.5459976
608,S2EA-J Store,14.3376999,120.9499969
609,Puregold,10.6733999,122.9479980
610,Kadiwa Market,14.3280001,120.9599991
611,Robinson's Supermarket,10.7209997,122.5579987
612,Rising Sun,16.4421005,120.5930023
613,Tael's Sari-sari Store,16.5144997,120.4039993
614,Ever,14.6932001,121.0299988
615,Iloilo Supermart City Mall Pavia Iloilo,10.7509003,122.5400009
616,Puregold Supermart Pavia Iloilo,10.7539997,122.5380020
617,SaveMore,11.2473001,125.0009995
618,Metro Gaisano Supermart Atria,10.7068005,122.5490036
619,Iloilo Supermart Tagbak,10.7627001,122.5790024
620,ISC Commercial Complex,10.7639999,122.5800018
621,Metro Supermarket,14.5509996,121.0569992
622,Alta Tierra Mini-Market,10.7407999,122.5640030
623,SM Supermarket Iloilo,10.7142000,122.5520020
624,Iloilo Supermarket Arevalo,10.6875000,122.5169983
625,Puregold Supermarket,13.1431999,123.7590027
626,LCC Expressmart,13.1386003,123.7369995
627,Savemore Supermarket,13.1490002,123.7529984
628,LCC Expressmart,13.1429005,123.7279968
629,Alfamart,14.3942003,120.9400024
630,LCC Market Plus Pio Duran,13.0326996,123.4459991
631,Grandmega Supermarket,6.9352498,122.0920029
632,Alfamart,14.3521996,121.0660019
633,Ilaya Mart,13.9341002,121.6149979
634,Good Year,8.9490004,125.5439987
635,Hengson Commercial,16.0454006,120.3420029
636,EC New Deal Supermart,16.0454006,120.3420029
637,JPL Grocery,16.0053005,120.6679993
638,Choice Mart,7.0849700,125.6110001
639,Emwin's Store,9.2138996,123.5139999
640,Alre General Merchandise,6.8821201,126.0869980
641,Compra,6.8829098,126.0869980
642,Tea Avenue,8.1870098,126.3539963
643,2020 Mega Mart,14.3633003,121.0569992
644,Ester Supermarket,14.3632002,121.0569992
645,Prince Hypermart,11.2496004,124.0019989
646,Gaisano Mart,10.2639999,123.8399963
647,Robinsons Supermarket,10.2667999,123.8430023
648,Unitop,10.2624998,123.8389969
649,SM supermaket,10.3504000,123.9479980
650,Masagana Ricemill and Feed Supply,16.3903999,121.1149979
651,Happy Mart,10.2645998,123.8410034
652,Alfamart,14.3418999,121.0459976
653,Easylane Supermarket,14.7091999,121.0619965
654,Ever Supermarket,14.6862001,120.9580002
655,Savemore,14.5672998,120.9919968
656,Commercial and Residential Units,14.7289000,120.9919968
657,Wellcome,14.3431997,121.0380020
658,Puregold,14.3806000,120.8789978
659,San Roque Supermarket,14.3627996,121.0559998
660,Robinsons Supermarket,8.2189598,124.2389984
661,AllDay Supermarket,14.5305996,121.0739975
662,UniCity,11.2452002,125.0039978
663,Alfamart,14.3434000,121.0579987
664,Alfamart,14.3425999,121.0370026
665,South Emerald Supermarket,13.9278002,121.4250031
666,Metro Supermarket,14.5241003,121.0139999
667,Gaisano Grand Mall Dumanjug,10.0579004,123.4359970
668,Gaisano,10.2444000,123.7929993
669,Gaisano Supermarket,11.0514002,124.0059967
670,Gaisano Grand Mall Liloan,10.4005003,124.0000000
671,Gaisano Capital Ozamiz Southwing,8.1426802,123.8450012
672,Wellcome,14.4172001,121.0459976
673,Fairmart,10.6659002,122.9459991
674,Satellite Market,10.6637001,122.9390030
675,Lopue's,10.6021996,123.0459976
676,Petron Gasul Center,8.0512199,123.7949982
677,Sagitarius Store,8.0222797,123.8239975
678,Handumanan Market,10.6042995,122.9710007
679,Baguio Metro Mart,16.4132996,120.5940018
680,Fitmart,6.1126399,125.1689987
681,Robinson's Place,6.1210699,125.1910019
682,Robinson's Supermarket,14.5754995,120.9840012
683,Robinsons Supermarket,13.8963003,120.9049988
684,LOON Mini Mart,12.4975996,124.6409988
685,Montery Meat Shop,12.4972000,124.6419983
686,Anna Basilio Supermarket,14.4793997,120.8990021
687,Irene Grocery,14.4797001,120.8990021
688,Gaisano Capital SRP,10.2572002,123.8590012
689,EVER SUPERMARKET,14.6101999,120.9950027
690,Trabajo Market,14.6100998,120.9960022
691,Unimart,14.6025000,121.0479965
692,SM Supermarket,13.9546003,121.1630020
693,Puregold,14.6378002,120.9739990
694,CSI Malasiqui,15.9188995,120.4150009
695,Agring-Agree Mart,13.9404001,121.1600037
696,SaveMore Market,13.9827995,121.3290024
697,Puregold Supermarket,7.9042301,125.0910034
698,Wellcome,14.6534004,121.1029968
699,Mightee Mart,14.6020002,121.0120010
700,Urdaneta City Bagsakan Market,15.9748001,120.5680008
701,Gaisano Supermarket,8.4865799,124.6510010
702,Bajenting Residences,9.8801003,123.5950012
703,Georkimart,13.9316998,121.6129990
704,Kossa Mart Korean Grocery,14.3008003,120.9540024
705,Puregold Tanzang Luma,14.4219999,120.9420013
706,Jon Mart,14.6309004,121.0029984
707,San Mateo Wet and Dry Market,14.6977997,121.1200027
708,Puregold,14.5223999,121.1539993
709,Golden Soy,8.7453203,124.7819977
710,Puregold,14.7809000,121.0329971
711,Robinsons Place Tagum,7.4295301,125.7969971
712,San Roque SuperMarket,14.4221001,120.9410019
713,Puregold,14.4221001,120.9400024
714,Prince Hypermart,9.6332397,125.5670013
715,Prime Supermart,13.6981001,123.4899979
716,Super SM Eton,14.6443005,121.0390015
717,Savemore,14.5737000,121.0490036
718,SM Depot,14.6230001,121.0559998
719,Sanford SM Novaliches,14.7074003,121.0380020
720,Super 8,14.8358002,120.7340012
721,Savemore,16.4144001,120.5970001
722,Shoppers' Mart,14.6006002,120.9759979
723,Urdaneta City Bagsakan,15.9744997,120.5650024
724,Liana's Supermarket,14.1065998,121.1470032
725,Walter Mart Supermarket,15.4868002,120.9720001
726,Puregold,14.6063004,120.9710007
727,Puregold,14.6049004,120.9739990
728,Nem's Hypermarket,11.4748001,123.0879974
729,Lester Lace,11.7767000,124.8840027
730,Puregold ligaya,14.6183004,121.0940018
731,Robinsons Selections,14.5332003,121.0510025
732,Grocery Mart,14.8408003,120.7639999
733,Bayle supermarket,17.4118004,121.4449997
734,Garchitorena Supermarket,13.8835001,123.6989975
735,Puregold,14.5839996,121.1240005
736,Robinson's supermarket,8.1440401,123.8410034
737,Robinsons Supermarket,14.8505001,120.8239975
738,Robinsons Supermarket,14.9007998,120.8659973
739,Holcim,8.3330498,124.2509995
740,Puregold Jr.,14.2891998,121.1100006
741,Puregold Jr.,14.6696997,121.1080017
742,Puregold Extra Brookside,14.5846996,121.1240005
743,Savemore,10.1021004,123.6389999
744,Super Metro Carcar,10.1091995,123.6510010
745,SM Hypermarket,14.7546997,120.9560013
746,Puregold,14.8358002,120.7330017
747,Robinsons Easymart,14.4375000,121.0049973
748,Mandarin Supermarket,14.6018000,120.9769974
749,Puregold Extra,14.6822004,121.1159973
750,Orliz General Merchandise,6.1764202,125.1520004
751,Flavcor Enterprises,6.1763601,125.1529999
752,Celtabowskie Agrivet Supply,6.1764598,125.1539993
753,Orliz General Merchandise,6.1764102,125.1520004
754,Puregold,15.3069000,120.9459991
755,Grocery Store,10.3139000,123.9309998
756,Robinsons Supermarket,14.4343996,121.0419998
757,Shopper's Mart,16.5163994,121.1829987
758,Bagabag Marketplace,16.6044998,121.2519989
759,Puregold Rosario,14.5902996,121.0849991
760,Alfonso Supermarket,14.5902996,121.0849991
761,Budgetlane,14.5909004,121.0869980
762,Ever Supermarket,14.7193003,121.0080032
763,Robinsons BF,14.4563999,121.0080032
764,Wet Market (talipapa),14.8100996,121.0630035
765,Sampol Wet Market,14.8568001,121.0550003
766,SM Savemore,14.4046001,120.9059982
767,Langaray Wet Market,14.6500998,120.9649963
768,Ever Supermarket,14.6508999,120.9639969
769,HB1,7.0923200,125.5009995
770,Ataw Mall,14.8789997,120.2350006
771,Homeworks,14.3638000,121.0579987
772,lacson,14.7798996,121.0370026
773,Robinsons Supermarket,15.5914001,120.9199982
774,M & W,14.2358999,121.3629990
775,Alfamart,14.2306004,121.3649979
776,Prosperity,15.4811001,120.9599991
777,Robinsons Place Ormoc,11.0251999,124.6050034
778,SM Savemore,17.6144009,121.7279968
779,Puregold,14.6571999,121.0059967
780,Robinsons Supermarket,14.6849003,121.0770035
781,Gaisano Capital Casuntingan,10.3453999,123.9309998
782,Savemore Market,16.3882008,121.1070023
783,Suave's Supermarket,14.7528000,121.1579971
784,SM Supermarket,14.0710001,121.3030014
785,Robinsons Supermarket,14.5871000,120.9960022
786,Superama,7.1072202,124.8259964
787,Savemore Binangonan,14.4941998,121.1809998
788,Savemore Market,16.5151005,121.1809998
789,SM Supermarket,14.3116999,121.0989990
790,PTANZO Prime Goods Source,14.1142998,122.9540024
791,Nolyns,11.2066002,124.9980011
792,Puregold Calanipawan,11.2081003,124.9990005
793,Wilfes,11.2047997,124.9970016
794,SM SaveMore Sta. Barbara Iloilo,10.8240995,122.5319977
795,MCC plastic wares,11.9629002,121.9270020
796,Savemore Market,10.6920004,122.5830002
797,Bilcris sausages,9.3036804,123.3079987
798,SM Savemore Supermarket,6.0773602,125.1460037
799,SM Supermarket,6.1161098,125.1809998
800,Violy's Minimart,15.7941999,120.9919968
801,Savemore Seaside City,10.2819004,123.8799973
802,Metro Supermarket,10.5920000,124.0179977
803,Puregold,16.6886997,121.5459976
804,Mercado,14.6503000,121.0759964
805,Pick Ur Pick,7.1452198,125.4789963
806,Golden M Superstore,13.8248997,121.3949966
807,Metrogold,8.4842796,123.8079987
808,Ongville,13.9637003,121.5260010
809,Lopue's Value Store - Sagay,10.8830004,123.4110031
810,Robinson's Supermarket,14.3965998,120.8649979
811,Alfamart,14.5370998,120.9820023
812,Alfamart,14.5382004,120.9820023
813,Rustan's,14.5699997,121.1790009
814,Camille Ann's General Merchandise,12.4969997,124.6399994
815,Directway,14.8209000,120.9619980
816,Prince Warehouse Club,10.9245996,124.4339981
817,Walter Mart Cabanatuan,15.4863005,120.9710007
818,Oro supermarket,6.9050598,122.0739975
819,Savemore,16.0464001,120.5920029
820,Villegas Appliances,12.4976997,124.6409988
821,SANVIC Enterprises,12.5037003,124.6230011
822,Mighty Marson,12.4984999,124.6419983
823,Talipapa,12.5053997,124.6419983
824,Puregold,14.0811996,121.1470032
825,Spice Market,10.1532001,124.3270035
826,Wet Market,10.1533003,124.3270035
827,Ever,14.6859999,121.0240021
828,JMIE GEN.MDSE.,14.3320999,120.9189987
829,WALTER MART,15.4868002,120.9720001
830,Gaisano Grand of Kidapawan,7.0243201,125.0820007
831,One Shop,10.7175999,122.5380020
832,Ledi Supermart,10.6934996,122.5690002
833,Budget Super Store,10.6970997,122.5690002
834,One shop,10.6940002,122.5709991
835,Longwin Jaro,10.7217999,122.5540009
836,Puregold,14.3802996,120.8799973
837,Rel marketing,11.4740000,123.0879974
838,TFA Supermarket,11.4540997,123.1520004
839,Estancia supermart,11.4538002,123.1520004
840,Joeys supermarket,11.2545004,123.0179977
841,EBC Family mart,13.8787003,120.9219971
842,Talipapa,14.4202003,121.0189972
843,Optimistic,15.8957005,120.6279984
844,Puregold,14.6570997,121.0049973
845,Holiday Mart,17.3670006,120.4800034
846,Metro Gaisano,13.6218004,123.1979980
847,San Fernando Town Market,13.5647001,123.1449966
848,Orville's Martworld,17.4279995,121.7730026
849,Lydia's Supermart,17.4286995,121.7730026
850,POLYMER GROCERY AND DRUGSTORE,17.4279003,121.7720032
851,Wet Market,11.9252005,123.7720032
852,Provincial Market,15.5207996,120.9369965
853,Alfamart,14.3492002,120.9810028
854,SM Pampanga,15.0523996,120.6989975
855,Matnog Wet Market,12.5859003,124.0869980
856,Puregold gagalangin,14.6226997,120.9720001
857,Topline,10.9449997,122.6340027
858,Ulep's Mini Grocery,18.1728992,120.5960007
859,SM Hyper Market,14.3281002,120.9599991
860,GO Mart,10.7046003,122.5520020
861,NCCC Sta. Cruz,6.8385801,125.4140015
862,Rebecca's Grocery,14.4096003,121.0459976
863,Viki's Talipapa,14.6877003,120.9950027
864,Salcedo Saturday Market,14.5599003,121.0230026
865,K2 TRADING,13.9794998,121.1679993
866,Come and Shop,13.9309998,121.6129990
867,3 N'S supermart,10.9860001,122.5350037
868,XZN lucky mart,10.9473000,122.5070038
869,Central Supermarket,13.6206999,123.1829987
870,Naga Favorite,13.6205997,123.1839981
871,SM Savemore,10.3748999,123.9599991
872,Gaisano Capital,7.0809798,125.5130005
873,Little market,17.5195999,120.5250015
874,Congressional ave Supermarket,14.6587000,121.0199966
875,Savemore smc jackman,14.6577997,121.0210037
876,Marinel Store,15.0726995,120.9499969
877,Caruha Wynns Oxygen,15.0727997,120.9499969
878,Unite General Merchandise,9.7868299,125.4980011
879,Victa Mart,15.1792002,120.6439972
880,Alfamart,13.7545996,121.0599976
881,PC Mactan,10.3105001,123.9499969
882,PC Baybay,10.6772003,124.8010025
883,PC Maasin,10.1335001,124.8410034
884,PC Naval,11.5599003,124.3949966
885,PC Tacloban,11.2470999,125.0019989
886,Lores Country Market,14.5760002,121.1750031
887,Puregold Jr,14.5888996,121.0970001
888,lupa ni nanay,13.9789000,121.5139999
889,Savemore,15.4849005,120.5889969
890,SM Supermarket,14.6182003,120.9860001
891,Robinson's Supermarket,14.7054005,121.0830002
892,Farmers Market,17.1219006,121.6210022
893,Aloot Foods,6.4984102,124.8450012
894,Aloot Foods,6.4882598,124.8420029
895,Robinsons ez heights88,14.6362000,121.0729980
896,Ever Supermarket Maligaya,14.7426996,121.0589981
897,Rjd warehouse,14.7117004,121.0250015
898,Smc nova plaza,14.7215996,121.0400009
899,Busay Agricultural Supply,10.3698997,123.8750000
900,Rockwell Supermarket,14.5643997,121.0350037
901,save more supermarket,16.6882000,121.5419998
902,Pure Gold Iriga,13.4212999,123.4130020
903,Taytay Multi-Purpose Cooperative,10.8242998,119.5179977
904,Pg conception,14.6464005,121.1110001
905,Robina rf11,14.5902004,121.2379990
906,Puregold panorama,14.6386995,121.1259995
907,Sunjin,14.5670996,121.2070007
908,Puregold,7.1980400,124.2369995
909,JSB Store,11.9970999,120.2050018
910,CSI SUPERMARKET COMPLEX,15.9715996,120.5719986
911,Metro Gaisano Lapu-Lapu,10.3128004,123.9560013
912,Fooda Saversmart Kasambagan,10.3252001,123.9169998
913,Pacific Mall,10.3404999,123.9479980
914,Wilter Corn Mill,7.4577599,125.7900009
915,Domingo's Grocery,17.4701996,121.4670029
916,Circle K,14.5657997,120.9980011
917,Robinsons Supermarket,10.3264999,123.9759979
918,Savemore,17.4269009,121.7740021
919,Roadside Store,11.9982996,120.2119980
920,SM Hypermarket,14.9612999,120.8919983
921,Metro,10.3132000,123.9560013
922,Unitop,13.4049997,121.1849976
923,Save More,10.4828997,123.4199982
924,Santi's Delicatessen,14.4257002,121.0279999
925,Abot kaya,11.1707001,119.3949966
926,Nic-Antz Store,10.7222996,123.8219986
927,AC Shutters Manufacturer,16.4361000,120.5449982
928,La Nueva - City Hall,10.2921000,123.9020004
929,Calunasan Norte Shop,9.6432104,124.0049973
930,Gaisano Grand Mall Catarman,12.4898996,124.6399994
931,Robinsons Grocery,16.4118996,120.5989990
932,F & F,6.9471598,124.8870010
933,Aklan Visayan,11.7077999,122.3629990
934,GreeneryMart,11.8163004,122.1610031
935,san roque talipapa,14.3243999,120.9680023
936,7-Eleven,9.3172998,123.3030014
937,Super 8,14.6588001,121.1119995
938,Superman Korean Mart,9.5514202,123.7730026
939,Mr. JJ,15.1665001,120.5839996
940,Grocerama,7.0131602,125.4970016
941,Island Central Mactan,10.3260002,123.9759979
942,RCS 2,15.3226995,120.6520004
943,Puregold,10.4828997,123.4209976
944,Candava Supermarket,13.4996004,120.9550018
945,SM Hypermarket,10.3358002,123.9339981
946,Tutuban Mall,14.6070004,120.9729996
947,Super 8,14.6216002,121.1689987
948,Cogeo Town Center,14.6213999,121.1689987
949,Victoria Supermart,16.4134998,120.5960007
950,Ong Ville,13.9637003,121.5260010
951,savemore project 8,14.6723003,121.0199966
952,Citimart Supermarket,13.7651997,121.0559998
953,Puregold,16.4125996,120.5920029
954,Wellcome,14.4488001,120.9850006
955,Ultimart Supermarket,14.0670996,121.3270035
956,Robinson's Supermarket,13.6146002,123.1930008
957,Savemore Supermarket,14.7191000,121.0049973
958,Emilus Mart,14.4499998,120.9240036
959,Robinsons,8.4807100,124.6559982
960,NCCC Lupon,6.8966498,126.0100021
961,RC Supermarket,11.7066002,122.3710022
962,Korean Grocery,14.4064999,120.8779984
963,Super8,14.6043997,121.0240021
964,Bogo market,11.0560999,124.0120010
965,Unitop,13.7577000,121.0569992
966,Prince Warehouse,9.7615004,123.5329971
967,prince,10.4912996,122.8259964
968,Puregold Dau,15.1745005,120.5889969
969,mentkent store,8.4580603,126.1579971
970,B's Mart,10.8530998,121.0100021
971,Super 8,14.6283998,120.9739990
972,San Roque Supermarket,14.6274004,120.9739990
973,Puregold,14.6231003,120.9830017
974,Robinsons Easymart,14.6504002,121.1159973
975,Wet Market,7.6341901,124.7259979
976,FOODA,10.2581997,123.8180008
977,Robinsons Easymart,14.6629000,121.0429993
978,SRS Supermarket,14.5878000,121.1740036
979,Dolores Market,12.0347996,125.4830017
980,SM Savemore,14.5775003,120.9919968
981,Super 8,14.5684004,121.1309967
982,SM Supermarket,8.4844103,124.6549988
983,Besco Shopping Mart,15.3116999,120.9509964
984,MS Mart,14.3209000,120.7689972
985,Puregold Pavia,10.7743998,122.5419998
986,Zabeth's Store,10.2497997,123.8310013
987,Alfamart,13.7784004,121.0670013
988,Puregold,16.0447006,120.4879990
989,Ledi Supermart,10.6934004,122.5690002
990,Licanda Variety Store Leon Iloilo,10.7792997,122.3880005
991,Iloilo Society Commercial,10.6920996,122.5719986
992,Puregold Binangonan,14.4919004,121.1809998
993,MC Store,14.9674997,120.6839981
994,SM Savemore Supermarket,13.1436005,123.7460022
995,Foodmart,14.6139002,121.0530014
996,Price Smart Roundball,6.1078801,125.1800003
997,Puregold,16.3945007,120.5800018
998,Iloilo Shaghai Bazzar,10.6940002,122.5690002
999,Isetann Supermarket,14.6046000,121.0169983
1000,Masinloc Mall,15.5387001,119.9489975
1001,Mina's Minimart,15.5384998,119.9489975
1002,Savemore Supermarket,17.1931992,120.4479980
1003,Gaisano Supermarket,8.1430302,123.8440018
1004,Gaisano Supermarket,10.3901997,123.6510010
1005,LCC Expressmart,13.6302004,123.1979980
1006,Puregold,15.0646000,120.7210007
1007,Arcadia,14.2466002,121.0619965
1008,Twenty Oaks Hypermarket,14.4372997,120.4950027
1009,Alfamart,14.3613005,121.0550003
1010,LCC Supermarket,13.6177998,123.2249985
1011,Mommy Yet's Store,14.1405001,120.9779968
1012,Alfamart,14.4240999,120.8679962
1013,Ever,14.7445002,121.0350037
1014,San Roque Supermarket,14.6854000,120.9889984
1015,RA Enterprises,10.3636999,123.8259964
1016,Puregold - Obando,14.7056999,120.9410019
1017,SM Supermarket,14.2041998,121.1549988
1018,JTC Superstore,17.5466995,120.3820038
1019,Maria Rice,14.5732002,121.0619965
1020,Alfamart Sunrise Marinig,14.2778997,121.1449966
1021,Alfamart Lakeside Nest,14.2637997,121.1439972
1022,Alfamart Marinig,14.2755003,121.1510010
1023,Savemore Market,14.8021002,121.0360031
1024,Abanto Groceries,14.2224998,120.9720001
1025,Savemore Market,18.3540993,121.6419983
1026,Alfamart Milagrosa,14.3086996,121.0500031
1027,Alfamart Magallanes,14.3125000,121.0530014
1028,PUREGOLD,14.5228004,121.1539993
1029,SM Savemore,14.5226002,121.1539993
1030,RCS,15.2153997,120.6620026
1031,Savemore Market,17.6121998,121.7300034
1032,Unitop Mall,17.6198006,121.7289963
1033,Xandria Store,13.4366999,121.0199966
1034,Jaynith's Supermarket,14.2110004,121.1630020
1035,Walter Mart Supermarket,14.2326002,121.1340027
1036,Sarah Hazel Rice & Groceries,14.2068996,121.1559982
1037,SM Savemore,14.3320999,121.0820007
1038,Robinson's Supermarket,14.3288002,121.0879974
1039,Alfamart,14.3135004,121.1119995
1040,A. Venue Makati,14.5663004,121.0299988
1041,Unitop Department Store,14.5586004,121.2089996
1042,Robinsons Supermarket,14.6149998,121.0380020
1043,Times Square Talamban,10.3695002,123.9179993
1044,New York merchandising,10.6908998,122.5709991
1045,Suy Sing,10.7665005,122.5810013
1046,Washington Supermart,10.6918001,122.5650024
1047,Cebu Gluta Drip Shop (Online Seller),10.3303003,123.9290009
1048,Suy Sing Taguig,14.4823999,121.0579987
1049,Carlos Superdrug,14.6275997,121.0479965
1050,Puregold junior,10.7742004,122.5419998
1051,Shopwise Express,14.5418997,121.0179977
1052,Convenience Store,11.9506998,121.9349976
1053,Baclaran Night market,14.5276003,120.9970016
1054,Super Metro Supermarket,14.1163998,120.9609985
1055,Savemore Market,15.6077003,120.5999985
1056,Walter Mart Supermarket,14.2021999,121.1539993
1057,F. P. Perez Mini Mart,14.2110996,121.1650009
1058,Puregold Calamba-Bayan,14.2128000,121.1640015
1059,Ultramega Supermarket,14.6592999,120.9710007
1060,Shop2Save,14.5745001,121.1139984
1061,Alfamart,14.3590002,121.0419998
1062,Fish Vendor,9.1637602,123.4869995
1063,M. Lumanao store,7.1373000,125.8929977
1064,Ever,14.3206997,120.9840012
1065,Puregold,11.6134996,125.4339981
1066,sari-sari store,14.8562002,120.9540024
1067,sari-sari store,14.8557997,120.9540024
1068,Gaisano Capital,10.3853998,124.9850006
1069,Villa Fedelina Supermarket,8.9537497,125.5329971
1070,Unitop,8.9478998,125.5439987
1071,LCC Express Mart Gubat,12.9204998,124.1240005
1072,Super88,14.6757002,120.9410019
1073,Puregold Boac,13.4484997,121.8379974
1074,Malabon City Square,14.6578999,120.9609985
1075,Puregold Pavia,10.7742996,122.5419998
1076,Value Chain Solution Inc.,15.4789000,120.9660034
1077,Croft Bulk Foods,7.0814500,125.6019974
1078,SM SaveMore Pavia,10.7533998,122.5380020
1079,Robinsons Supermarket,10.7539997,122.5400009
1080,Savemore Market,14.5696001,120.9889984
1081,All About Baking,14.6187000,121.0029984
1082,SM Hypermarket,14.4854002,121.0429993
1083,RRL Clean Rice,14.5846004,121.0250015
1084,Puregold,15.8100004,120.4570007
1085,Walter Mart Supermarket,14.1604004,121.1399994
1086,Liberty,13.7074003,123.2139969
1087,Gaisano Capital Oton,10.6914997,122.4700012
1088,CityMall Palo,11.1771002,125.0009995
1089,CPT,10.6975002,122.5690002
1090,Ledi Supermart,10.6948004,122.5690002
1091,NE Baler,15.7538996,121.5449982
1092,Robinsons Supermarket,11.2400999,124.9869995
1093,Gaisano Capital Supermarket,7.8239598,123.4410019
1094,Green Tom's Organic,13.9385004,121.6129990
1095,Puregold,11.5771999,122.7529984
1096,Alfamart,14.3072996,121.1100006
1097,Shop n save supermarket,20.4475002,121.9700012
1098,Supermarket,20.4501991,121.9720001
1099,Prince Hypermart Calinog,11.1269999,122.5390015
1100,Alfamart,14.3218002,121.0979996
1101,Hedric Store,9.3345604,125.9739990
1102,Puregold,14.8014002,120.5350037
1103,CBN Boneless Bangus,16.0673008,120.3349991
1104,Dolores Market,12.0355997,125.4830017
1105,CFMPC Warehouse,10.7798004,122.3870010
1106,Aquarex Marketing - Ginebra,16.6875000,120.3410034
1107,Ever Supermarket,14.7061005,121.0729980
1108,Balageo's Grocery,17.4699993,121.4690018
1109,Nansev Grocery,17.4699993,121.4690018
1110,JTC Mall,16.9363003,120.4469986
1111,Zeny's Supermarket,16.9353008,120.4449997
1112,Penguin Mart ペンギンマート,14.5698996,120.9850006
1113,Walter Mart Noveleta,14.4293003,120.8939972
1114,Wellcome Supermarket,10.2779999,123.8539963
1115,Robinson's Supermarket,14.4111996,121.0469971
1116,SM Hypermarket,14.6714001,121.0390015
1117,Adlei Sari Sari Store,14.2882004,120.8649979
1118,Sustamina,14.2845001,120.8679962
1119,Profit Saver,14.2872000,120.8649979
1120,Teppen,14.5553999,121.0139999
1121,Robinson's Supermarket,10.6322002,122.9700012
1122,Puregold,14.5976000,121.0179977
1123,Puregold,15.6585999,120.7669983
1124,MC Jade Supermart,10.9004002,123.0709991
1125,Injap Supermart,11.5847998,122.7529984
1126,Shopper's Budget Store,11.3009996,124.6890030
1127,Pure Gold,11.3004999,124.6910019
1128,Puregold,14.5993996,120.9810028
1129,WVP Lopson,7.0764699,125.6230011
1130,Felcris Sales,7.0768199,125.6200027
1131,Shariff Aguak Old Market,6.8629699,124.4440002
1132,San Roque Supermarket,14.5476999,121.0640030
1133,Marketplace,14.6012001,121.0540009
1134,Dismart,13.8795004,121.5520020
1135,Metro,15.1622000,120.6100006
1136,630 Minimart,14.3431997,121.0579987
1137,619 Croceries,17.1214008,121.6179962
1138,Alfamart,14.3535004,121.0090027
1139,Alfamart,14.5818005,121.1129990
1140,Value Chain Solution Inc.,17.6352997,121.7129974
1141,Puregold,14.0611000,121.2369995
1142,SM Hypermarket,14.4084997,120.9240036
1143,Wet Market,8.2289696,124.2340012
1144,Gaisano Riverside,11.0077000,124.6039963
1145,Family Mart & General Merchandise,14.8442001,121.9700012
1146,Wanbee Supermarket,16.1543007,119.9810028
1147,Abad Supermarket,14.4195995,120.9390030
1148,Bague Store and Agrivet Supply,11.1591997,124.9889984
1149,San Roque Supermarket,16.1564007,119.9830017
1150,Savemore supermarket,16.1557007,119.9800034
1151,Alfamart,14.4312000,121.0110016
1152,Store behind Petron,9.1582003,123.4940033
1153,Robinsons Supermarket,14.5721998,121.0830002
1154,Landers Superstore,14.4151001,121.0169983
1155,Robinson's Supermarket,11.5922003,122.7529984
1156,blue building,13.4478998,121.8389969
1157,San Roque Supermarket,14.4369001,121.0059967
1158,Jow's Mart,14.4157000,120.9499969
1159,Public market,12.3640003,123.6220016
1160,Ever Supermarket,14.6296997,120.9950027
1161,Bis Choice,10.7796001,122.3889999
1162,Marketplace,14.6042995,121.0339966
1163,Robinsons Arvo,14.3591003,120.9820023
1164,Dao Public Market,11.3964996,122.6800003
1165,Robinson’s Supermarket,14.4286003,120.9649963
1166,Unimec,14.3392000,121.0839996
1167,SM Supermarket,14.6046000,121.0179977
1168,Bocala Trirom Building 1995,11.3958998,122.6809998
1169,South Emerald,13.9439001,121.5920029
1170,All Day Supermarket Iloilo,10.7370996,122.5130005
1171,Acc Hypermart,13.5801001,124.2279968
1172,Sta. Cruz Market,17.0811996,120.4570007
1173,Prince Hypermart,8.2409496,122.9990005
1174,Lofer General Merchandise,8.2381897,122.9980011
1175,ER SUPERMARKET,6.8963199,126.0139999
1176,Ever Supermarket,14.7017002,121.0360031
1177,All Day Supermarket,14.4257002,120.8919983
1178,Cantilan Public Market,9.3343296,125.9789963
1179,Golden Soy,8.7414198,124.7819977
1180,Unitop Baliuag,14.9615002,120.8939972
1181,Harizon Wholesale Center,14.5365000,120.9960022
1182,Magaldan Public Market,16.0669003,120.4039993
1183,SM Hypermarket,14.6877003,121.0000000
1184,Citra Mina Seafood Market,6.4897199,124.8570023
1185,AM Castro Chicken Dealer,14.7250996,120.9660034
1186,Alpha Mart,14.7360001,120.9580002
1187,Asjen,10.3268995,123.9440002
1188,Bert N Marie Grocery,14.7658005,120.9970016
1189,Puregold,14.7264004,120.9599991
1190,Alfamart,14.4410000,120.9639969
1191,Puregold,10.6913004,122.4680023
1192,Waltermart Supermarket,14.8275003,120.8740005
1193,Barreto MiniMart,14.8497000,120.2649994
1194,kurt and kaye mart,14.7498999,120.9670029
1195,VO Salcedo HomeCenter,9.2506905,124.7220001
1196,Savemore,14.7441998,120.9700012
1197,roel's store,14.7266998,120.9749985
1198,Rustan's Supermarket,10.3424997,123.9189987
1199,Prince,9.2707396,118.4110031
1200,Super 8,14.7350998,120.9609985
1201,BQ Superstore,9.6497898,124.3649979
1202,Prince,8.7759199,117.8369980
1203,Gaisano,9.2528200,124.7160034
1204,Kibawe Public Market,7.5701098,124.9860001
1205,578,15.9195995,120.4160004
1206,Angels,13.1906996,123.6009979
1207,Shopwise,14.5730000,121.0179977
1208,Pasalubong Center,10.5714998,122.0709991
1209,CityMall Mayombo,16.0380001,120.3470001
1210,Wellcome,10.3262997,123.9179993
1211,Ultra Mega Value Store,14.6069002,120.9670029
1212,SM Hypermart Tagaytay,14.1014004,120.9459991
1213,Markant,18.4519997,122.1389999
1214,Super C,18.4540005,122.1380005
1215,Aribal Store,10.3507996,125.2529984
1216,Robinsons North Tacloban,11.2399998,124.9869995
1217,Hyper market,10.6016998,122.5879974
1218,IB Shoppers Mart,16.6170998,120.3170013
1219,Savemore Market,14.1717997,120.9240036
1220,EasyDay,14.5785999,121.0009995
1221,Save More,10.7131996,122.5530014
1222,Festive market,10.7182999,122.5469971
1223,Metrogold Supermart,7.9032502,125.0910034
1224,Roy Plaza,7.9027801,125.0910034
1225,Puregold Bulakan,14.7933998,120.8789978
1226,Seoulmart Co. Inc,14.5655003,121.0309982
1227,Pavia Public Market,10.7744999,122.5410004
1228,CPT Mart,10.7454004,121.9410019
1229,Licandas,10.7442999,121.9430008
1230,Licandas,10.7866001,122.0169983
1231,BuyMaxx Supermarket,15.1143999,120.6090012
1232,Puregold,16.7201996,120.3479996
1233,All Home Mall - All Day Supermarket,14.3420000,120.8600006
1234,The Marketplace,16.4120998,120.6050034
1235,Puregold,14.6338997,121.1090012
1236,Marketplace by Rustan's,14.2486000,121.0479965
1237,Robinson RMR building,14.6754999,121.0449982
1238,SMH Enterprise,5.9908400,124.6250000
1239,SM Hypermarket,14.4295998,121.0210037
1240,SJPHMPC Mart,10.3513002,125.2509995
1241,Shine Convenience Store,14.4333000,120.9899979
1242,Ministop,14.4363003,120.9889984
1243,Alfamart,14.4371004,120.9899979
1244,Our store,14.4511003,121.0039978
1245,Landmark Supermarket,14.4165001,121.0429993
1246,The Fresh Market,14.5552998,121.0650024
1247,T.H. Valencia,7.9044700,125.0920029
1248,Puregold Valencia,7.9041700,125.0910034
1249,Puregold,7.4497399,125.8050003
1250,Cronica Mart,14.5255003,121.0739975
1251,Cronica Mart,14.5254002,121.0749969
1252,Gaisano Grand Mall Supermarket,10.4927998,123.7139969
1253,Savemore,17.1271000,121.8669968
1254,Puregold,17.1336994,121.8690033
1255,W & M Superstore,9.2492905,124.7180023
1256,Building 3 Mega Market,7.0123401,125.0910034
1257,Lorega San Miguel Public Market,10.3077002,123.9039993
1258,Mother Earth,16.4092999,120.5930023
1259,Pacific Marketplace,16.4129009,120.5970001
1260,Four Brothers Grocery,17.1998005,120.4509964
1261,Belcap Food Warehouse,14.6430998,121.1220016
1262,NCCC Supermarket,7.1902499,125.4560013
1263,CS RUFO RICE DEALER,16.0431004,120.3359985
1264,Fred and Cely Store,16.0429993,120.3359985
1265,DAGUPAN MALIMGAS PUBLIC MARKET,16.0429001,120.3359985
1266,MARLYN S. RUIZ MEAT SHOP,16.0429001,120.3359985
1267,MARLYN CLAVERIA'S LINGAYEN BAGOONG CANNING SERVICE,16.0429993,120.3369980
1268,Ruby Anna's Fish,16.0426998,120.3369980
1269,Siapao Brother Grocery,16.0428009,120.3359985
1270,Dagupan City New Star Variety Store,16.0436993,120.3369980
1271,Jenas Sari Sari Store,16.0421009,120.3369980
1272,Mery Ann Infante Consignation,16.0445004,120.3349991
1273,SM Savemore Market Dagupan Downtown,16.0445995,120.3369980
1274,Daryanani Marketing,16.7248993,120.3509979
1275,Bambi Grocery,16.5291004,120.3290024
1276,Korean Bakery and Grocery,16.0433998,120.3330002
1277,Janas Foods Incorporated,16.0436001,120.3320007
1278,Local Grocery Store,14.2936001,120.9390030
1279,Aida's Store,15.9918003,120.3320007
1280,Czelo & Tintin Grocery,14.6953001,121.0869980
1281,SM Supermarket,14.5878000,121.1050034
1282,Ho-Land,14.6114998,121.0350037
1283,Shopwise Express,14.6368999,121.0609970
1284,LB Supermarket,6.9196100,122.1070023
1285,San Pablo Market,14.0679998,121.3229980
1286,San Pablo Market,14.0677996,121.3239975
1287,Puregold,15.1632004,120.5559998
1288,Marketplace,14.6100998,121.0790024
1289,Grocery Outlet,14.4783001,121.0490036
1290,Super8,14.2748003,120.8710022
1291,Super 8,14.4839001,121.0609970
1292,Grocery Outlet,14.4766998,121.0599976
1293,CSi,15.7886000,120.2959976
1294,Grocery Outlet,14.4848003,121.0479965
1295,Grocery Outlet,14.4865999,121.0469971
1296,Puregold,15.4490004,120.7979965
1297,LEN LEN,14.3202000,120.9589996
1298,Mini market,11.9485998,121.9309998
1299,BABY ROJO,14.3209000,120.9690018
1300,MANG JOJO,14.3200998,120.9710007
1301,Prince Supermarket,9.2504196,123.5930023
1302,Fish market,9.9456396,125.2480011
1303,All Day Supermarket,14.4768000,120.9840012
1304,RDFS Shuttle Bus,14.8231001,120.3020020
1305,5G's Store,14.3253002,120.9680023
1306,Alfamart,14.3142996,121.0970001
1307,SM Savemore Garden Villas,14.3115997,121.1169968
1308,Super 8,14.6243000,120.9879990
1309,Gaisano Mall,7.4514799,125.8030014
1310,Public market,10.5283003,122.6829987
1311,Robinsons Easymart,14.5783997,121.1859970
1312,NCCC Choicemart,7.0794501,125.5449982
1313,Metro,10.6766996,122.9489975
1314,Shopwise Express,14.4011002,120.9039993
1315,Save More,14.5825005,121.1299973
1316,Merrymart Grocery,14.5360003,120.9909973
1317,Merrymart Grocery,14.1983995,121.1600037
1318,Alfamart,14.5402002,120.9810028
1319,Bess In Town,14.9673996,120.6829987
1320,Sumulong Grocery,14.5612001,121.0759964
1321,Sunshine Marketing,6.8357601,125.4150009
1322,Choice Mart,7.1395502,125.6490021
1323,PureGold Orani,14.8014002,120.5350037
1324,Novo Store ( Formerly Ocean Palace Mall Lucena),13.9322004,121.6129990
1325,Alfamart,13.7700996,121.0650024
1326,Alfamart,13.7618999,121.0640030
1327,Supermarket,10.1521997,124.3270035
1328,Crystal Mart,14.3908005,121.0439987
1329,All Day Supermarket,14.4162998,121.0469971
1330,Nomer Feeds Supply,14.5621996,121.4440002
1331,Joners Supermarket,14.7813997,120.9349976
1332,Joners Supermarket,14.7813997,120.9349976
1333,Shopwise,14.6124001,121.0879974
1334,LUMAHANG STORE,8.5723801,124.4420013
1335,Steve Grocery Store,8.8237000,125.1080017
1336,NCCC Supermarket,7.0946498,125.5800018
1337,WISECHOICE Supplements,9.6505699,123.8659973
1338,Puregold,10.1194000,123.2710037
1339,Marquez Sotre,6.2103801,125.2369995
1340,All Day Supermarket,14.8748999,120.7959976
1341,San Roque Supermarket,14.5503998,121.1019974
1342,Monster Kitchen,8.4752502,124.6429977
1343,Alfamart,14.1962004,120.8779984
1344,Mikko Banana Crackers,13.0531998,121.4169998
1345,Guerra's Store,13.0541000,121.4219971
1346,Calingasan Store,13.0562000,121.4229965
1347,Julao's Store,13.0518999,121.4219971
1348,Spectra Glass and Aluminum,13.0339003,121.4909973
1349,Midtown,13.0351000,121.4879990
1350,Princemart,13.0358000,121.4869995
1351,Alfamart,14.4398003,120.9850006
1352,Fortunes Mart,14.5629997,120.9960022
1353,Super 8,14.6777000,120.5390015
1354,Iba Town Center,15.3289003,119.9729996
1355,Fresh Mart,10.3046999,123.8929977
1356,BAGSAKAN,8.6551104,117.5130005
1357,Friendly Mart,6.3720102,124.7500000
1358,KCC Supermarket,6.1138501,125.1869965
1359,Sandugo,14.6208000,121.0510025
1360,Cuyas Grocery,12.9747000,121.4779968
1361,VT & son,12.9675999,121.4779968
1362,Allmart,13.0407000,121.4769974
1363,Bestfriends Grocery Store,13.1732998,121.2779999
1364,Metro Gaisano,13.9368000,121.6080017
1365,PRINCE Sibonga,10.0157003,123.6190033
1366,MassWay,9.7802401,118.7490005
1367,Super8,13.8844995,120.9130020
1368,SM Hypermarket,13.8874998,120.9120026
1369,Alfamart,13.8817997,120.9160004
1370,NOVO,13.0368004,121.4840012
1371,MRMD Cycle Mart,13.8862000,120.9120026
1372,SMK General Merchandise,7.9048400,125.0910034
1373,Prince hypermart,10.1042995,122.8710022
1374,Alfamart,15.1382999,120.5930023
1375,ANSTEC Electronics International,14.4510002,121.0189972
1376,7/11,14.6394997,121.1220016
1377,The Han Yang Mart,14.3992996,121.0110016
1378,Robinson's Supermarket Baseline,10.3129997,123.8939972
1379,Korea Mart,14.6827002,121.0790024
1380,Puregold,14.5433998,121.1269989
1381,"Sindangan, Public Market, Zamboanga del Norte",8.2271700,123.0049973
1382,Savemore,7.4455500,125.8099976
1383,Kuya MAK store,13.5916996,122.3209991
1384,Gaisano Mall of Tagum,7.4489498,125.8119965
1385,Local market 24hours,14.6283998,121.0490036
1386,Chef's Depot,7.0811300,125.6029968
1387,Titay Recreation Center,7.8668499,122.5479965
1388,BUDGETWISE GUSU,6.9204998,122.0459976
1389,Public Market,17.5687008,120.3850021
1390,Gaisano Grand Mall Supermarket,10.2866001,123.9710007
1391,Alfamart,14.7357998,121.0640030
1392,Carjam's,10.3732996,124.7500000
1393,Hyper Market,16.0454006,120.3430023
1394,SM mall,16.0445995,120.3440018
1395,Gaisano Grand Cordova,10.2568998,123.9469986
1396,Delizo Store,6.3297300,124.9540024
1397,Supermarket,11.5588999,122.7519989
1398,Good Shop Supermart,11.5810003,122.7529984
1399,Shopwise,10.3078003,124.0130005
1400,Restaurant Depot,14.5390997,120.9960022
1401,SM Supermarket,14.5309000,120.9840012
1402,Celeste Frozen Foods,14.6592999,121.1129990
1403,Centrala public market,6.3587599,124.7590027
1404,Robinson's,14.5649004,121.0759964
1405,Super 8,14.6248999,121.0169983
1406,Super 8,14.6964998,121.0859985
1407,Bagong Barrio Market,14.6620998,120.9940033
1408,Pulong Buhangin Public Market,14.8659000,120.9960022
1409,Montevista Public Market,7.7077799,125.9929962
1410,San Roque Supermarket (SRS),14.7524004,121.0179977
1411,South Emerald,14.0138998,121.3909988
1412,7-Eleven,9.6559696,123.8529968
1413,Prince Hypermart Minglanilla,10.2412996,123.7990036
1414,City of Naga Public Market,10.2055998,123.7600021
1415,Wellcome,14.5811005,121.0289993
1416,The Market Place - Minglanilla,10.2418003,123.7979965
1417,Savemore Market,10.8985996,123.0660019
1418,Magtoto Store,14.8690004,121.0680008
1419,GoMart Express,10.3042002,123.9850006
1420,SHOPWELL,10.2609997,123.8379974
1421,Sosyo Supermart,10.3125000,123.9509964
1422,GAISANO CAPITAL,11.2353001,125.0029984
1423,SM Supermarket,16.4097996,120.5989990
1424,Allan Blumentrit,14.6253004,120.9850006
1425,LCC Expressmart,13.1715002,123.7519989
1426,Gaisano Grand Silay Supermarket,10.7929001,122.9710007
1427,Metro Supermarket,10.3304005,123.9079971
1428,Eco Trade,16.6606007,121.3679962
1429,J.V. Tadeo Fishing Supply & Store,18.4591007,120.5810013
1430,Mike-Len Supermart,14.7220001,120.5360031
1431,S&R Membership,14.6339998,121.1060028
1432,Robinsons Supermarket,14.6840000,121.1050034
1433,Puregold,14.5670004,121.1419983
1434,Unitop Grocery,14.4070997,120.9029999
1435,EMJ STORE,8.5727196,124.4420013
1436,Flores Store,16.6606007,121.3669968
1437,Longwin General Merchandise,10.2412996,123.7969971
1438,百盛 Parkson City,14.4251003,120.9440002
1439,SnR,14.5724001,121.0199966
1440,E,14.5900002,121.0059967
1441,Robinsons Supermarket,14.5711002,121.0479965
1442,Savemore,14.7530003,121.1579971
1443,Bacayan Savers Mart,10.3837996,123.9209976
1444,Puregold,14.4260998,121.0019989
1445,Savemore,14.6394997,121.0329971
1446,SM Savemore Primark Town Caibaan,11.2157001,124.9960022
1447,Puregold Minimart,14.5762997,121.0360031
1448,Robinsons Supermarket,14.6180000,121.0569992
1449,Tin&Mig Grocery Main Branch,14.3739996,121.0240021
1450,Super8 Supermarket,14.6206999,121.0510025
1451,Saver's Choice Grocery,14.3732996,121.0240021
1452,Walter Mart Sta. Rosa Bel-Air,14.2662001,121.0759964
1453,SaveMore Supermarket,14.3508997,120.9810028
1454,Super8 Market,14.2938995,121.0059967
1455,S&R Membership Shopping,14.5553999,121.0490036
1456,WalterMart Supermarket,14.6568003,121.0210037
1457,Gaisano Supermarket,10.2996998,123.8700027
1458,Real Food,14.5481005,121.0469971
1459,Rustan's Supermarket,14.5565004,121.0550003
1460,SM Supermarket,14.5464001,121.0540009
1461,Emilu's Supermarket,14.3856001,120.8440018
1462,Alfamart,14.1955004,120.8820038
1463,Kempmart,14.2257004,120.9739990
1464,Alfamart,14.3348999,120.9219971
1465,Savemore Market,13.7884998,121.0609970
1466,Puregold,14.6415005,121.0319977
1467,SM Savemore Calinog,11.1275997,122.5390015
1468,PureGold Price Club,14.6665001,121.0339966
1469,Alfamart,14.6701002,120.9970016
1470,GAISANO CAPITAL ILOILO GUANCO,10.6921997,122.5699997
1471,Puregold Jr.,14.7646999,120.9889984
1472,Ever,14.6684999,121.0080032
1473,Puregold Jr. Pandi,14.8627996,120.9380035
1474,Puregold Jr.,14.6377001,120.9970016
1475,All Day,14.3856001,120.9779968
1476,Puregold,14.6583004,120.9619980
1477,Puregold,11.5847998,122.7539978
1478,Whartoner Supermarket,14.6078997,120.9779968
1479,Alfamart,14.6054001,120.9820023
1480,in-time Supermarket,14.6019001,120.9769974
1481,LCC Exoress,14.1106005,122.9560013
1482,KJ Fairmart,10.6598997,122.9520035
1483,Reysal,14.2781000,121.1230011
1484,Robinsons Supermarket,14.6049995,121.0910034
1485,Puregold,14.6050997,120.9810028
1486,LJ Products for UR Needs,6.9314799,122.0729980
1487,Athesa's Shoppe,6.9291801,122.0709991
1488,S&R,15.1803999,120.5999985
1489,Cristina Mart,14.5136995,121.2389984
1490,S&R,14.6052999,121.0800018
1491,Lots For Less,7.0487499,125.5670013
1492,Fisher Mall malabon,14.6570997,120.9609985
1493,Kapamilya Import Export Food Trading,14.9577999,120.9469986
1494,Alfamart,14.7160997,121.1409988
1495,Gaisano Grand,11.2557001,123.0149994
1496,WalterMart,14.1792002,121.2389984
1497,Savemore,14.8579998,120.8119965
1498,Our Farmers’ Haven,14.4221001,121.0319977
1499,Happy 11 Supermarket,14.6260004,121.1389999
1500,Tiongsan Supermarket and Hardware,16.4153996,120.5960007
1501,Kemp Mart,14.6401997,121.0149994
1502,Lucky Savers Mini Store,14.1062002,122.9219971
1503,Old 999 Mall,14.6049004,120.9729996
1504,Puregold Langaray,14.6499004,120.9639969
1505,Fisher Mall Malabon,14.6569996,120.9609985
1506,Ambfel Pharmacy,16.4284992,120.6080017
1507,Delma's Access Purified,16.4241009,120.5979996
1508,Savemore Market,14.7973003,121.0299988
1509,Come N Shop,14.4707003,120.9779968
1510,Savemore Supermarket,10.2964001,123.9840012
1511,CJaka General Merchandise,14.1840000,121.5120010
1512,Peñalosa Store,14.1847000,121.5100021
1513,456 Supermart,16.4169006,120.5960007
1514,Watsons,14.5342999,121.0490036
1515,Wellcome Supermarket,14.5340996,121.0490036
1516,Puregold,14.6490002,121.1159973
1517,SOHO TOP,14.6594000,121.1129990
1518,Talwar Indian Grocery,14.5846996,120.9919968
1519,Little India Simron Grocery,14.5846004,120.9919968
1520,Jashmeet Indian Grocery,14.5846004,120.9919968
1521,Buy Maxx Supermarket,14.9708004,120.6050034
1522,Umani Grounds,6.5084200,124.8349991
1523,Tboli public msrket,6.2159600,124.8199997
1524,Korean Supermarket,14.4562998,121.0070038
1525,Savemore Supermarket,14.9653997,120.6320038
1526,Phillipians 4:19 Store,14.3218002,120.8769989
1527,Alfamart,14.2540998,120.8659973
1528,Super8 Grocery Warehouse,15.0942001,120.7669983
1529,RCS Supermarket,15.0761003,120.9420013
1530,Robinson's Supermarket,13.7599001,121.0569992
1531,Prince Hypermarket,11.2570000,123.0130005
1532,Pardilla's Grocery (Supermarket),13.6313000,122.2440033
1533,SnR,14.5021000,120.9980011
1534,Amorganda Mini Mart,9.5966597,123.1179962
1535,Bais City Satellite Market,9.5958204,123.1179962
1536,ZAB Amorganda,9.5894098,123.1190033
1537,Amorganda Mini Mart,9.5884199,123.1210022
1538,Hypermart,14.3263998,120.7750015
1539,Jacqueline's Grocery,13.7575998,121.0559998
1540,SARANGHAE Mini KOREAN Store,14.0872002,121.1780014
1541,SANTE BARLEY DAVAO CITY OFFICE,7.0582199,125.6009979
1542,Cristobal Variety Store,17.3337994,121.7610016
1543,Daquidols Sari-Sari Store,8.4678898,124.6579971
1544,G-Mall of Cebu,10.3086004,123.9120026
1545,Metro Fresh & Easy,10.2452002,123.7949982
1546,Metro Wholesale Mart,10.2967997,123.8990021
1547,Robinson’s Supermarket Minglanilla,10.2473001,123.8000031
1548,Noy Tilano Market,10.2561998,123.8130035
1549,Cadag Store,14.1758003,122.6259995
1550,Asne Sari- Sari Store,8.2212200,124.2340012
1551,Metro Gaisano Supermarket,10.3175001,123.9039993
1552,Super 8 Grocery Warehouse,15.1468000,120.7679977
1553,PRINCE,11.2573004,123.0130005
1554,Sara wet market,11.2475996,123.0230026
1555,Happy 3F,6.7470298,125.3560028
1556,G-Market,6.7584300,125.3460007
1557,San Roque Supermarket,14.5851002,121.1760025
1558,San Roque Supermarket,14.7767000,121.0500031
1559,Magic Supermarket,15.9279003,120.3479996
1560,J Arcade,8.4833803,123.8069992
1561,Puregold,14.4062996,120.9759979
1562,SM Savemore,15.6697998,120.5790024
1563,Wet Market,14.7765999,121.0449982
1564,Toledo City Public Market,10.3771000,123.6360016
1565,PLAZA MARCELA,9.6514902,123.8519974
1566,Emertan grocery,9.2378902,117.9940033
1567,Savemore,14.8902998,120.8669968
1568,Alfamart,15.1518002,120.7419968
1569,Alfamart,15.1473999,120.7630005
1570,Robinsons Easymart,15.0075998,120.7119980
1571,Chuzon Supermarket,15.0101995,120.7089996
1572,Alfamart,15.1260996,120.5729980
1573,Robinsons Easymart,14.6435003,121.0169983
1574,Alfamart,15.1114998,120.5650024
1575,Robinsons Supermarket,10.2670002,123.8440018
1576,Corner Life,13.9351997,121.6139984
1577,Yawe Family Mart,13.9348001,121.6129990
1578,Alfamart,15.0078001,120.7099991
1579,Herrencia's Pure Wild Honey,14.4687004,120.9749985
1580,Africa Sari-Sari Store,13.9440002,121.1679993
1581,Narveric Store,13.9440002,121.1679993
1582,J&J Store,13.9462004,121.1709976
1583,Charice Agrivet,13.9468002,121.1709976
1584,ZAB's Meat Shop,13.9519997,121.1849976
1585,Alfamart,13.8766003,121.2109985
1586,Jennifer's Grocery,13.8765001,121.2139969
1587,Alfamart,13.8646002,121.2070007
1588,"JMG.Jerry,Maricel Glibeert.Online and Grocery Store",13.8850002,121.2590027
1589,Puregold,7.4448400,125.8140030
1590,Daisy Delantar,7.4514799,125.8030014
1591,Pao Pao Store,10.2536001,123.8089981
1592,Angie Store,13.8603001,121.2229996
1593,Nanay Nilly Store,13.8857002,121.2369995
1594,Mona's Store,13.8865004,121.2419968
1595,Blessed Minimart,13.8863001,121.2409973
1596,Super C,7.4468198,125.8050003
1597,Super 9,14.4221001,121.4449997
1598,Larry & Daryl Grocery Store,14.4171000,121.4449997
1599,Rita & Annie's Minimart,14.4231005,121.4449997
1600,SIniloan Public Market Phase 2,14.4235001,121.4449997
1601,Southern Twin,13.9432001,121.1620026
1602,Southern's Twin SuperMarket 3,13.9618998,121.1699982
1603,Robinsons Supermarket,13.9431000,121.1330032
1604,Super 8 Grocery Warehouse,13.9425001,121.1529999
1605,Muk Bang,13.9411001,121.1490021
1606,SM Supermarket,16.9368992,121.7689972
1607,JJ store,7.4585600,125.7890015
1608,Conde Banana,7.4457502,125.8119965
1609,Lores Mini Market,14.5761003,121.1750031
1610,Puregold,16.6264992,120.3190002
1611,CSI Grocery Store,16.6296005,120.3229980
1612,Alfamart,14.3270998,121.0670013
1613,Allied Supermarket,16.3218002,120.3649979
1614,Dinnes Store,6.8343301,126.1949997
1615,Dylan Store,6.8344898,126.1949997
1616,Santa Rita Minimart Puregold,14.9974003,120.6149979
1617,Puregold,14.0674000,121.3259964
1618,BM,14.0655003,121.3270035
1619,Agoo Korean Mini Mart,16.3209000,120.3669968
1620,Merrymart,16.0382004,120.3470001
1621,Alfamart Kapayapaan Ville,14.2068996,121.0970001
1622,Tiong San Supermarket - Notre Dame,16.4144001,120.5989990
1623,Alfamart,14.2882996,121.0019989
1624,Kiya's Pizza House,14.4207001,121.4459991
1625,sari-sari store,14.4210997,121.4469986
1626,Sari Sari Store,14.4229002,121.4469986
1627,Sari Sari 1 Store,14.4229002,121.4469986
1628,Sari Sari  2 Store,14.4230003,121.4469986
1629,Sari Sari 3 Store,14.4231997,121.4469986
1630,Sari Sari 4 Store,14.4233999,121.4469986
1631,Sari Sari 5 Store,14.4235001,121.4469986
1632,Sari Sari 6 Store,14.4245005,121.4469986
1633,Sari Sari 7 Store,14.4247999,121.4469986
1634,Sari Sari 8 Store,14.4256001,121.4479980
1635,Sari Sari 9 Store,14.4257002,121.4479980
1636,Sari Sari 10 Store,14.4261999,121.4479980
1637,Sari Sari 11 Store,14.4264002,121.4479980
1638,Sari Sari 12 Store,14.4265003,121.4479980
1639,Sari Sari 13 Store,14.4266005,121.4479980
1640,Sari Sari 14 Store,14.4267998,121.4479980
1641,Sari Sari 15 Store,14.4273005,121.4479980
1642,Sari Sari 16 Store,14.4275999,121.4479980
1643,Sima Store,14.4280996,121.4489975
1644,Sari Sari 17 Store,14.4287004,121.4489975
1645,Sari Sari 18 Store,14.4287004,121.4489975
1646,Talipapa,14.4288998,121.4489975
1647,Ilao Store,14.4288998,121.4489975
1648,LPG Gasul Store,14.4287996,121.4489975
1649,Sari Sari 19 Store,14.4291000,121.4499969
1650,Reagan Traiding,14.4228001,121.4440002
1651,M&W Supermarket,14.4223003,121.4459991
1652,Sioland,14.4223003,121.4459991
1653,Home Along,14.4228001,121.4440002
1654,Sari Sari 20 Store,14.4289999,121.4499969
1655,Sari Sari 21 Store,14.4287004,121.4509964
1656,Sari Sari 22 Store,14.4286003,121.4509964
1657,Sari Sari 23 Store,14.4281998,121.4509964
1658,Sari Sari 24 Store,14.4280996,121.4509964
1659,Sari Sari 25 Store,14.4280996,121.4509964
1660,Sari Sari 26 Store,14.4280005,121.4520035
1661,Sari Sari 27 Store,14.4281998,121.4520035
1662,Sari Sari 48 Store,14.4294996,121.4509964
1663,Sari Sari Store,14.4306002,121.4570007
1664,Sari Sari Store,14.4305000,121.4570007
1665,Sari Sari Store,14.4239998,121.4479980
1666,Sari Sari Store,14.4261999,121.4499969
1667,Sari Sari Store,14.4266005,121.4499969
1668,Nancy's Sari-Sari Store,14.4442997,121.4560013
1669,Jona's Sari-Sari Store,14.4445000,121.4570007
1670,Meris Sari-Sari Store,14.4450998,121.4570007
1671,Dina's Sari-Sari Store,14.4450998,121.4560013
1672,Ester Sari-Sari Store,14.4452000,121.4570007
1673,Sari Sari 28 Store,14.4285002,121.4509964
1674,Sari Sari 29 Store,14.4286003,121.4509964
1675,Sari Sari 30 Store,14.4287004,121.4509964
1676,Sari Sari 31 Store,14.4287004,121.4509964
1677,Sari Sari Store,14.4280005,121.4479980
1678,Sari Sari Store,14.4223003,121.4469986
1679,Sari Sari 32Store,14.4291000,121.4509964
1680,Sari Sari  33 Store,14.4292002,121.4509964
1681,Sari Sari  34Store,14.4292002,121.4509964
1682,Sari Sari 35 Store,14.4288998,121.4520035
1683,Sari Sari 36 Store,14.4287004,121.4520035
1684,Sari Sari 37 Store,14.4286003,121.4520035
1685,Gulayan,14.4284000,121.4520035
1686,Sari Sari 39 Store,14.4287004,121.4520035
1687,Sari Sari 38 Store,14.4287004,121.4520035
1688,Sari Sari 43 tore,14.4289999,121.4520035
1689,Sari Sari 44 Store,14.4292002,121.4520035
1690,Sari Sari 45 Store,14.4294004,121.4520035
1691,Sari Sari 46 Store,14.4294004,121.4509964
1692,Sari Sari 47 Store,14.4294996,121.4509964
1693,Sari Sari 50 Store,14.4302998,121.4509964
1694,Sari Sari 49 Store,14.4301004,121.4509964
1695,Sari Sari 53 Store,14.4296999,121.4520035
1696,Sari Sari 54 Store,14.4296999,121.4520035
1697,Sari Sari 52 Store,14.4300003,121.4520035
1698,Sari Sari 51Store,14.4300003,121.4509964
1699,Sari Sari 55 Store,14.4294996,121.4520035
1700,Sari Sari 56 Store,14.4293003,121.4520035
1701,Sari Sari store,14.4264002,121.4479980
1702,Sari Sari Store,14.4259996,121.4479980
1703,Amang Yul's Chicharon,14.4254999,121.4469986
1704,Sari Sari Store,14.4257002,121.4469986
1705,Sari Sari Store,14.4278002,121.4479980
1706,Sari Sari store,14.4277000,121.4479980
1707,Sari Sari Store,14.4224997,121.4469986
1708,Sari Sari Store,14.4441996,121.4680023
1709,Sari Sari Store,14.4436998,121.4680023
1710,Sari Sari Store,14.4434996,121.4690018
1711,Sari Sari 69 Store,14.4386997,121.4560013
1712,Sari Sari 68 Store,14.4330997,121.4550018
1713,Sari Sari Store,14.4253998,121.4489975
1714,Sari Sari Store,14.4239998,121.4479980
1715,Sari-sari`s Store,14.4251003,121.4469986
1716,Kalinga`s Store,14.4250002,121.4469986
1717,Sari-sari`s Store,14.4247999,121.4469986
1718,Sari-saris`s Store,14.4245005,121.4469986
1719,Sari Sari 63 Store,14.4305000,121.4509964
1720,Sari Sari 64 Store,14.4306002,121.4509964
1721,Sari Sari 65 Store,14.4308004,121.4509964
1722,Sari Sari 62 Store,14.4301996,121.4520035
1723,Sari Sari 61 Store,14.4301004,121.4520035
1724,Sari Sari 60 Store,14.4299002,121.4520035
1725,Sari Sari 59 Store,14.4296999,121.4520035
1726,Gataan,14.4295998,121.4530029
1727,Sari Sari 58 Store,14.4294996,121.4530029
1728,Sari Sari 57 Store,14.4292002,121.4530029
1729,Sari Sari 42 Store,14.4289999,121.4530029
1730,Sari Sari Store,14.4288998,121.4530029
1731,Sari Sari 41 Store,14.4288998,121.4520035
1732,Sari Sari 40 Store,14.4287996,121.4520035
1733,Sari Sari 67 Store,14.4313002,121.4530029
1734,Sari Sari 76 Store,14.4321003,121.4530029
1735,Sari Sari 75 Store,14.4320002,121.4530029
1736,Sari Sari 66 Store,14.4313002,121.4520035
1737,Sari Sari Store,14.4209995,121.4449997
1738,Sari Sari Store,14.4205999,121.4449997
1739,Sari Sari Store,14.4202003,121.4449997
1740,Sari Sari Store,14.4200001,121.4449997
1741,Sari Sari Store,14.4198999,121.4449997
1742,Sari Sari Store,14.4196997,121.4449997
1743,Sari Sari Store,14.4191999,121.4449997
1744,Sari Sari Store,14.4190998,121.4449997
1745,Sari Sari Store,14.4186001,121.4440002
1746,Sari Sari Store,14.4182997,121.4440002
1747,Sari Sari Store,14.4174995,121.4440002
1748,Sari Sari Store,14.4175997,121.4440002
1749,Msgt. Feliciano Capunihan St.,14.2939997,121.0059967
1750,Magra Commercial Center,14.2937002,121.0059967
1751,Savemore Market - Portal Mall,14.2943001,121.0059967
1752,"DALI EVERYDAY GROCERY, GMA",14.2952995,121.0070038
1753,Sari Sari Store,14.4205999,121.4469986
1754,Sari Sari Store,14.4209003,121.4469986
1755,Gregorio Sari-Sari Store,14.4146996,121.4479980
1756,Sari Sari Store,14.4224005,121.4479980
1757,Sari Sari Store,14.4229002,121.4479980
1758,Sari Sari Store,14.4259005,121.4499969
1759,Sari Sari Store,14.4237003,121.4479980
1760,Bespren Sari Sari Store,14.4238005,121.4479980
1761,sari-sari`s store,14.4195995,121.4449997
1762,Drely Organic Feeds,14.4306002,121.4560013
1763,sari-sari`s store,14.4193001,121.4449997
1764,Sari Sari Store,14.4235001,121.4479980
1765,Sari Sari Store,14.4251003,121.4509964
1766,Sari Sari Store,14.4250002,121.4509964
1767,Sari Sari Store,14.4232998,121.4479980
1768,sari-sari`s store,14.4186001,121.4449997
1769,Sari Sari Store,14.4232998,121.4479980
1770,Sari Sari Store,14.4257002,121.4489975
1771,sari-sari`s store,14.4164000,121.4440002
1772,Talipapa,14.4169998,121.4449997
1773,Sari Sari Store,14.4177999,121.4459991
1774,sari-sari`s store,14.4155998,121.4430008
1775,Sari Sari 71  Store,14.4537001,121.4649963
1776,Sari Sari Store,14.4319000,121.4570007
1777,Sari Sari Store 2,14.4321003,121.4570007
1778,Delia's Grocery,14.4350996,121.4499969
1779,Sari Sari Store b1,14.4309998,121.4489975
1780,Sari Sari Store b2,14.4312000,121.4489975
1781,sari-sari`s store,14.4188995,121.4459991
1782,sari-sari`s store,14.4188995,121.4459991
1783,Sari Sari Store,14.4672003,121.4779968
1784,Kap's Sari Sari Store,14.4910002,121.5090027
1785,Lydia Grocery,14.4231997,121.4449997
1786,Pitongs Coconut Milk,14.4237003,121.4449997
1787,Lydia Mini Grocery,14.4230003,121.4449997
1788,Velina's sari sari store,14.4918003,121.5090027
1789,Sari-sari`s store,14.4177999,121.4449997
1790,Prutasan,14.4338999,121.4520035
1791,Sari Sari 74Store,14.4303999,121.4530029
1792,Sari Sari Store,14.4280996,121.4550018
1793,Sari Sari Store,14.4280996,121.4550018
1794,Sari Sari Store,14.4289999,121.4560013
1795,CMG Battery Shop,14.4239998,121.4430008
1796,NEFA Gen.merchandise,14.4226999,121.4449997
1797,ONE TOWN ONE PRODUCT,14.4226999,121.4449997
1798,Pacifica Poultry Supply,14.4225998,121.4449997
1799,San Isidro Grocery,14.1450005,121.3160019
1800,Sari Sari 101 Store,14.4357004,121.4560013
1801,Sari Sari Store,14.4249001,121.4509964
1802,Lary and Daryl Grocery,14.4169998,121.4449997
1803,Sari sari store,14.4172001,121.4440002
1804,sari sari store,14.4173002,121.4440002
1805,sari sari store,14.4173002,121.4440002
1806,Grocery Store,14.1655998,121.3489990
1807,South Emerald Supermarket,14.1775999,121.3379974
1808,Puregold Calauan,14.1485004,121.3130035
1809,Robinsons Easymart,14.5684004,121.0859985
1810,Pen-Pen's Store,14.8666000,120.7819977
1811,Alfamart,14.5650997,121.1760025
1812,Alfamart,14.5660000,121.1279984
1813,Deep Lieve Grocery,14.5452003,121.0159988
1814,Vinellies Marketing,14.8555002,120.8600006
1815,Pager Goal Shop,14.8563004,120.8600006
1816,Jnr Energex,14.8586998,120.8590012
1817,Puregold,14.7720003,120.9400024
1818,3 Sister Store,14.8281002,120.8759995
1819,Food Trip 24 7,14.8292999,120.8740005
1820,Alfamart,14.4623003,120.9909973
1821,"BFC Worldwide, Inc.",14.8281002,120.8909988
1822,Alfamart,14.8275003,120.8929977
1823,Nomu Korean Food Mart,14.8250999,120.8980026
1824,New Star,14.8425999,120.8130035
1825,St. Anthony Mini Grocery,14.8283997,120.8219986
1826,Zid and Zai store,14.8123999,120.8410034
1827,Merbee Variety Store,14.8420000,120.8479996
1828,Savemore,14.2742004,121.4189987
1829,578 Variety Store,14.7517004,120.9560013
1830,SM Hypermarket - SM City Marilao,14.7546997,120.9560013
1831,Exatech - Hypermarket,14.7542000,120.9560013
1832,Vil-Nol Store,14.7561998,120.9530029
1833,San Roque Supermarket,14.7591000,120.9520035
1834,Owhane Enterprises,14.7639999,120.9459991
1835,"Robinsons Easymart Marilao, Bulacan",14.7720003,120.9400024
1836,Chinese Supermarket,14.7739000,120.9680023
1837,Alfamart,14.7841997,120.9929962
1838,Trinutri Corporation,14.7841997,120.9879990
1839,Alfamart,14.7911997,121.0090027
1840,Alfamart,14.7819996,120.9359970
1841,Eugenio Store,14.8066998,120.9369965
1842,Alfamart,14.8296003,120.9440002
1843,Alfamart,14.8149004,120.9390030
1844,CN'S supermarket,14.6871004,120.9580002
1845,BMK Home Needs,14.8155003,120.9110031
1846,Fortune Market,14.8182001,120.9049988
1847,FAMILY SAVERS DEPT. STORE - BALAGTAS,14.8184996,120.9049988
1848,Ultra Mega Supermarket,14.8207998,120.9029999
1849,savemore,16.0084000,120.3580017
1850,Saret Organic Farmville,14.8261995,120.9010010
1851,Alfamart,14.8245001,120.9049988
1852,Alfamart,14.8487997,120.9059982
1853,Ever,14.7226000,120.9649963
1854,Fred and Del Superette,14.7934999,120.8789978
1855,Zoila's Grocery Store,14.7933998,120.8799973
1856,Alfamart,14.8111000,120.8679962
1857,5am sari sari store,14.8896999,120.8720016
1858,Seoul+ Korean Mart Plaridel,14.8898001,120.8730011
1859,CIC Garage and Apartment,14.8863001,120.8990021
1860,Kalabaw General merchandise,14.8730001,120.9010010